{
"type": "FeatureCollection",
"name": "names",
"crs": { "type": "name", "properties": { "name": "urn:ogc:def:crs:OGC:1.3:CRS84" } },
"features": [
{ "type": "Feature", "properties": { "osm_id": "196845925", "name": "千駄ケ谷", "barrier": null, "highway": null, "ref": null, "address": null, "is_in": null, "place": null, "man_made": null, "other_tags": "\"local_ref\"=>\"2\",\"name:en\"=>\"Sendagaya\",\"name:es\"=>\"Sendagaya\",\"name:it\"=>\"Sendagaya\",\"public_transport\"=>\"stop_position\",\"railway\"=>\"stop\",\"train\"=>\"yes\"" }, "geometry": { "type": "Point", "coordinates": [ 139.7113735, 35.6813099 ] } },
{ "type": "Feature", "properties": { "osm_id": "252053557", "name": "信濃町駅前", "barrier": null, "highway": "traffic_signals", "ref": null, "address": null, "is_in": null, "place": null, "man_made": null, "other_tags": "\"name:en\"=>\"Shinanomachi Sta.\"" }, "geometry": { "type": "Point", "coordinates": [ 139.7191999, 35.6804284 ] } },
{ "type": "Feature", "properties": { "osm_id": "267805296", "name": "外苑出口", "barrier": null, "highway": "motorway_junction", "ref": "402", "address": null, "is_in": null, "place": null, "man_made": null, "other_tags": "\"name:en\"=>\"Gaien\",\"name:es\"=>\"Gaien\",\"name:ja\"=>\"外苑出口\",\"name:ja_kana\"=>\"がいえんでぐち\",\"name:ja_rm\"=>\"Gaien\"" }, "geometry": { "type": "Point", "coordinates": [ 139.7139224, 35.6807458 ] } },
{ "type": "Feature", "properties": { "osm_id": "295403184", "name": "千駄ヶ谷五丁目", "barrier": null, "highway": "traffic_signals", "ref": null, "address": null, "is_in": null, "place": null, "man_made": null, "other_tags": "\"name:en\"=>\"Sendagaya 5\",\"name:ja\"=>\"千駄ヶ谷五丁目\",\"traffic_signals\"=>\"signal\"" }, "geometry": { "type": "Point", "coordinates": [ 139.70379410000001, 35.6844532 ] } },
{ "type": "Feature", "properties": { "osm_id": "295403286", "name": "四谷四丁目", "barrier": null, "highway": null, "ref": null, "address": null, "is_in": null, "place": null, "man_made": null, "other_tags": "\"junction\"=>\"yes\",\"name:en\"=>\"Yotsuya 4-chome\",\"name:es\"=>\"Yotsuya 4-chome\",\"name:ja\"=>\"四谷四丁目\"" }, "geometry": { "type": "Point", "coordinates": [ 139.7159426, 35.6875692 ] } },
{ "type": "Feature", "properties": { "osm_id": "295406736", "name": "富久町", "barrier": null, "highway": null, "ref": null, "address": null, "is_in": null, "place": null, "man_made": null, "other_tags": "\"junction\"=>\"yes\"" }, "geometry": { "type": "Point", "coordinates": [ 139.7166689, 35.6911956 ] } },
{ "type": "Feature", "properties": { "osm_id": "295406746", "name": "四谷四丁目", "barrier": null, "highway": null, "ref": null, "address": null, "is_in": null, "place": null, "man_made": null, "other_tags": "\"junction\"=>\"yes\",\"name:en\"=>\"Yotsuya 4-chome\",\"name:es\"=>\"Yotsuya 4-chome\",\"name:ja\"=>\"四谷四丁目\"" }, "geometry": { "type": "Point", "coordinates": [ 139.7159555, 35.6874365 ] } },
{ "type": "Feature", "properties": { "osm_id": "295406796", "name": "外苑橋", "barrier": null, "highway": null, "ref": null, "address": null, "is_in": null, "place": null, "man_made": null, "other_tags": "\"junction\"=>\"yes\",\"name:en\"=>\"Gaien Brdg.\",\"name:ja\"=>\"外苑橋\"" }, "geometry": { "type": "Point", "coordinates": [ 139.7136749, 35.6805852 ] } },
{ "type": "Feature", "properties": { "osm_id": "295413307", "name": "千駄ヶ谷駅", "barrier": null, "highway": "traffic_signals", "ref": null, "address": null, "is_in": null, "place": null, "man_made": null, "other_tags": "\"name:en\"=>\"Sendagaya Sta.\",\"name:es\"=>\"Sendagaya Sta.\",\"name:ja\"=>\"千駄ヶ谷駅\"" }, "geometry": { "type": "Point", "coordinates": [ 139.7115507, 35.6807016 ] } },
{ "type": "Feature", "properties": { "osm_id": "295425305", "name": "四谷三丁目", "barrier": null, "highway": "traffic_signals", "ref": null, "address": null, "is_in": null, "place": null, "man_made": null, "other_tags": "\"name:en\"=>\"Yotsuya 3-chome\",\"name:ja\"=>\"四谷三丁目\",\"name:ko\"=>\"요츠야 3초메\"" }, "geometry": { "type": "Point", "coordinates": [ 139.72030190000001, 35.6880172 ] } },
{ "type": "Feature", "properties": { "osm_id": "472447032", "name": "新宿一丁目南", "barrier": null, "highway": "traffic_signals", "ref": null, "address": null, "is_in": null, "place": null, "man_made": null, "other_tags": "\"name:en\"=>\"Shinjuku 1 S.\",\"name:ja\"=>\"新宿一丁目南\"" }, "geometry": { "type": "Point", "coordinates": [ 139.7098943, 35.6880926 ] } },
{ "type": "Feature", "properties": { "osm_id": "472447036", "name": "新宿一丁目北", "barrier": null, "highway": null, "ref": null, "address": null, "is_in": null, "place": null, "man_made": null, "other_tags": "\"junction\"=>\"yes\",\"name:en\"=>\"Shinjuku icchoume kita\"" }, "geometry": { "type": "Point", "coordinates": [ 139.7101596, 35.6915341 ] } },
{ "type": "Feature", "properties": { "osm_id": "472447038", "name": null, "barrier": null, "highway": "traffic_signals", "ref": null, "address": null, "is_in": null, "place": null, "man_made": null, "other_tags": null }, "geometry": { "type": "Point", "coordinates": [ 139.7100093, 35.6902883 ] } },
{ "type": "Feature", "properties": { "osm_id": "472447076", "name": "大木戸坂下", "barrier": null, "highway": "traffic_signals", "ref": null, "address": null, "is_in": null, "place": null, "man_made": null, "other_tags": "\"name:en\"=>\"Okido-Saka Shita\"" }, "geometry": { "type": "Point", "coordinates": [ 139.715343, 35.6901169 ] } },
{ "type": "Feature", "properties": { "osm_id": "473169350", "name": null, "barrier": null, "highway": null, "ref": null, "address": null, "is_in": null, "place": null, "man_made": null, "other_tags": "\"noexit\"=>\"yes\"" }, "geometry": { "type": "Point", "coordinates": [ 139.714654200000012, 35.6847142 ] } },
{ "type": "Feature", "properties": { "osm_id": "473169356", "name": null, "barrier": null, "highway": null, "ref": null, "address": null, "is_in": null, "place": null, "man_made": null, "other_tags": "\"noexit\"=>\"yes\"" }, "geometry": { "type": "Point", "coordinates": [ 139.714915600000012, 35.6843025 ] } },
{ "type": "Feature", "properties": { "osm_id": "473169388", "name": "無名橋", "barrier": null, "highway": "traffic_signals", "ref": null, "address": null, "is_in": null, "place": null, "man_made": null, "other_tags": "\"traffic_signals\"=>\"signal\"" }, "geometry": { "type": "Point", "coordinates": [ 139.716921500000012, 35.6807081 ] } },
{ "type": "Feature", "properties": { "osm_id": "473169393", "name": "大京町", "barrier": null, "highway": "traffic_signals", "ref": null, "address": null, "is_in": null, "place": null, "man_made": null, "other_tags": null }, "geometry": { "type": "Point", "coordinates": [ 139.7152806, 35.6822647 ] } },
{ "type": "Feature", "properties": { "osm_id": "473173557", "name": null, "barrier": null, "highway": null, "ref": null, "address": null, "is_in": null, "place": null, "man_made": null, "other_tags": "\"junction\"=>\"yes\"" }, "geometry": { "type": "Point", "coordinates": [ 139.706366, 35.6894706 ] } },
{ "type": "Feature", "properties": { "osm_id": "517548733", "name": "国立能楽堂前", "barrier": null, "highway": "traffic_signals", "ref": null, "address": null, "is_in": null, "place": null, "man_made": null, "other_tags": "\"name:en\"=>\"National Noh Theater\",\"name:ja\"=>\"国立能楽堂前\"" }, "geometry": { "type": "Point", "coordinates": [ 139.7077127, 35.6812044 ] } },
{ "type": "Feature", "properties": { "osm_id": "735990780", "name": "新宿二丁目東", "barrier": null, "highway": null, "ref": null, "address": null, "is_in": null, "place": null, "man_made": null, "other_tags": "\"junction\"=>\"yes\",\"name:en\"=>\"Shinjuku 2 East\",\"name:ja\"=>\"新宿二丁目東\",\"name:ja-Hira\"=>\"しんじゅくにちょうめひがし\",\"name:ja-Latn\"=>\"Shinjuku 2-chome Higashi\"" }, "geometry": { "type": "Point", "coordinates": [ 139.707660800000014, 35.689597 ] } },
{ "type": "Feature", "properties": { "osm_id": "735990788", "name": "新宿一丁目西", "barrier": null, "highway": null, "ref": null, "address": null, "is_in": null, "place": null, "man_made": null, "other_tags": "\"junction\"=>\"yes\",\"name:en\"=>\"Shinjuku 1 West\",\"name:ja\"=>\"新宿一丁目西\",\"name:ja-Hira\"=>\"しんじゅく1ちょうめにし\",\"name:ja-Latn\"=>\"Shinjuku 1-chome Nishi\"" }, "geometry": { "type": "Point", "coordinates": [ 139.709930899999989, 35.6887603 ] } },
{ "type": "Feature", "properties": { "osm_id": "735990791", "name": "新宿御苑駅前", "barrier": null, "highway": "traffic_signals", "ref": null, "address": null, "is_in": null, "place": null, "man_made": null, "other_tags": "\"name:en\"=>\"Shinjukugyoen Sta.\",\"name:ja\"=>\"新宿御苑駅前\",\"traffic_signals\"=>\"signal\"" }, "geometry": { "type": "Point", "coordinates": [ 139.711823, 35.6883523 ] } },
{ "type": "Feature", "properties": { "osm_id": "735990793", "name": "新宿一丁目", "barrier": null, "highway": "traffic_signals", "ref": null, "address": null, "is_in": null, "place": null, "man_made": null, "other_tags": "\"name:en\"=>\"Shinjuku 1\",\"name:ja\"=>\"新宿一丁目\",\"traffic_signals\"=>\"signal\"" }, "geometry": { "type": "Point", "coordinates": [ 139.7140647, 35.6878799 ] } },
{ "type": "Feature", "properties": { "osm_id": "1318940913", "name": null, "barrier": null, "highway": "traffic_signals", "ref": null, "address": null, "is_in": null, "place": null, "man_made": null, "other_tags": "\"traffic_signals\"=>\"signal\"" }, "geometry": { "type": "Point", "coordinates": [ 139.703633, 35.6856018 ] } },
{ "type": "Feature", "properties": { "osm_id": "1318940951", "name": null, "barrier": null, "highway": "crossing", "ref": null, "address": null, "is_in": null, "place": null, "man_made": null, "other_tags": "\"bicycle\"=>\"yes\",\"crossing\"=>\"traffic_signals\"" }, "geometry": { "type": "Point", "coordinates": [ 139.7046019, 35.6804796 ] } },
{ "type": "Feature", "properties": { "osm_id": "1318940975", "name": null, "barrier": null, "highway": "crossing", "ref": null, "address": null, "is_in": null, "place": null, "man_made": null, "other_tags": "\"crossing\"=>\"traffic_signals\"" }, "geometry": { "type": "Point", "coordinates": [ 139.7046025, 35.6809328 ] } },
{ "type": "Feature", "properties": { "osm_id": "1420766948", "name": "佐藤美術館", "barrier": null, "highway": null, "ref": null, "address": null, "is_in": null, "place": null, "man_made": null, "other_tags": "\"addr:housenumber\"=>\"新宿区大京町３１－１０\",\"addr:street\"=>\"外苑西通り\",\"name:en\"=>\"Sato Art Museum\",\"note:ja\"=>\"国土数値情報（公共施設データ）平成19年　国土交通省\",\"opening_hours\"=>\"Tu-Th, Sa-Su 10:00-17:00; Fr 10:00-19:00\",\"source_ref\"=>\"http://nlftp.mlit.go.jp/ksj/jpgis/datalist/KsjTmplt-P02-v2_0.html\",\"tourism\"=>\"museum\",\"wikidata\"=>\"Q11384365\",\"wikimedia_commons\"=>\"Category:Sato Museum of Art\",\"wikipedia\"=>\"ja:佐藤美術館\"" }, "geometry": { "type": "Point", "coordinates": [ 139.714976, 35.681682 ] } },
{ "type": "Feature", "properties": { "osm_id": "1420771040", "name": "原宿警察署千駄ヶ谷駅前交番", "barrier": null, "highway": null, "ref": null, "address": null, "is_in": null, "place": null, "man_made": null, "other_tags": "\"amenity\"=>\"police\",\"name:en\"=>\"Koban Police\",\"name:es\"=>\"Policía de Koban\",\"note:ja\"=>\"国土数値情報（公共施設データ）平成19年　国土交通省\",\"source_ref\"=>\"http://nlftp.mlit.go.jp/ksj/jpgis/datalist/KsjTmplt-P02-v2_0.html\"" }, "geometry": { "type": "Point", "coordinates": [ 139.711772599999989, 35.6807943 ] } },
{ "type": "Feature", "properties": { "osm_id": "1420771482", "name": "四谷大木戸郵便局", "barrier": null, "highway": null, "ref": null, "address": null, "is_in": null, "place": null, "man_made": null, "other_tags": "\"amenity\"=>\"post_office\",\"check_date\"=>\"2023-07-22\",\"KSJ2:AdminArea\"=>\"東京都新宿区\",\"KSJ2:ADS\"=>\"内藤町1-5\",\"KSJ2:PubFacAdmin\"=>\"その他\",\"note:ja\"=>\"国土数値情報（公共施設データ）平成19年　国土交通省\",\"source_ref\"=>\"http://nlftp.mlit.go.jp/ksj/jpgis/datalist/KsjTmplt-P02-v2_0.html\"" }, "geometry": { "type": "Point", "coordinates": [ 139.715763, 35.685728 ] } },
{ "type": "Feature", "properties": { "osm_id": "1420771503", "name": "四谷消防署新宿御苑出張所", "barrier": null, "highway": null, "ref": null, "address": null, "is_in": null, "place": null, "man_made": null, "other_tags": "\"amenity\"=>\"fire_station\",\"name:en\"=>\"Yotsuya Fire Station Shinjuku Gyoen Branch\",\"name:es\"=>\"Estación de bomberos Yotsuya, sede Shinjuku Gyoen\",\"note:ja\"=>\"国土数値情報（公共施設データ）平成19年　国土交通省\",\"source_ref\"=>\"http://nlftp.mlit.go.jp/ksj/jpgis/datalist/KsjTmplt-P02-v2_0.html\"" }, "geometry": { "type": "Point", "coordinates": [ 139.7113644, 35.6886248 ] } },
{ "type": "Feature", "properties": { "osm_id": "1420771509", "name": "四谷第六幼稚園", "barrier": null, "highway": null, "ref": null, "address": null, "is_in": null, "place": null, "man_made": null, "other_tags": "\"amenity\"=>\"kindergarten\",\"note:ja\"=>\"国土数値情報（公共施設データ）平成19年　国土交通省\",\"source_ref\"=>\"http://nlftp.mlit.go.jp/ksj/jpgis/datalist/KsjTmplt-P02-v2_0.html\"" }, "geometry": { "type": "Point", "coordinates": [ 139.7152389, 35.6812357 ] } },
{ "type": "Feature", "properties": { "osm_id": "1420771544", "name": "四谷警察署大京町交番", "barrier": null, "highway": null, "ref": null, "address": null, "is_in": null, "place": null, "man_made": null, "other_tags": "\"amenity\"=>\"police\",\"KSJ2:AdminArea\"=>\"東京都新宿区\",\"KSJ2:ADS\"=>\"大京町28-1\",\"KSJ2:PubFacAdmin\"=>\"都道府県\",\"note:ja\"=>\"国土数値情報（公共施設データ）平成19年　国土交通省\",\"source_ref\"=>\"http://nlftp.mlit.go.jp/ksj/jpgis/datalist/KsjTmplt-P02-v2_0.html\"" }, "geometry": { "type": "Point", "coordinates": [ 139.715774900000014, 35.6831578 ] } },
{ "type": "Feature", "properties": { "osm_id": "1420771550", "name": "四谷警察署新宿交番", "barrier": null, "highway": null, "ref": null, "address": null, "is_in": null, "place": null, "man_made": null, "other_tags": "\"amenity\"=>\"police\",\"name:en\"=>\"Koban\",\"note:ja\"=>\"国土数値情報（公共施設データ）平成19年　国土交通省\",\"source_ref\"=>\"http://nlftp.mlit.go.jp/ksj/jpgis/datalist/KsjTmplt-P02-v2_0.html\"" }, "geometry": { "type": "Point", "coordinates": [ 139.709549, 35.689041 ] } },
{ "type": "Feature", "properties": { "osm_id": "1420771555", "name": "四谷警察署新宿四丁目交番", "barrier": null, "highway": null, "ref": null, "address": null, "is_in": null, "place": null, "man_made": null, "other_tags": "\"amenity\"=>\"police\",\"name:en\"=>\"Koban\",\"note:ja\"=>\"国土数値情報（公共施設データ）平成19年　国土交通省\",\"source_ref\"=>\"http://nlftp.mlit.go.jp/ksj/jpgis/datalist/KsjTmplt-P02-v2_0.html\",\"wheelchair\"=>\"no\"" }, "geometry": { "type": "Point", "coordinates": [ 139.7036795, 35.6888533 ] } },
{ "type": "Feature", "properties": { "osm_id": "1420780766", "name": "新宿一郵便局", "barrier": null, "highway": null, "ref": null, "address": null, "is_in": null, "place": null, "man_made": null, "other_tags": "\"amenity\"=>\"post_office\",\"note:ja\"=>\"国土数値情報（公共施設データ）平成19年　国土交通省\",\"source_ref\"=>\"http://nlftp.mlit.go.jp/ksj/jpgis/datalist/KsjTmplt-P02-v2_0.html\"" }, "geometry": { "type": "Point", "coordinates": [ 139.7101365, 35.689311 ] } },
{ "type": "Feature", "properties": { "osm_id": "1420780796", "name": "新宿区立四谷図書館", "barrier": null, "highway": null, "ref": null, "address": null, "is_in": null, "place": null, "man_made": null, "other_tags": "\"amenity\"=>\"library\",\"name:en\"=>\"Yotsuya Library\",\"name:es\"=>\"Biblioteca de Yotsuya\",\"note:ja\"=>\"国土数値情報（公共施設データ）平成19年　国土交通省\",\"source_ref\"=>\"http://nlftp.mlit.go.jp/ksj/jpgis/datalist/KsjTmplt-P02-v2_0.html\"" }, "geometry": { "type": "Point", "coordinates": [ 139.714509, 35.687523 ] } },
{ "type": "Feature", "properties": { "osm_id": "1420782821", "name": "東京勤労者医療会代々木病院", "barrier": null, "highway": null, "ref": null, "address": null, "is_in": null, "place": null, "man_made": null, "other_tags": "\"amenity\"=>\"hospital\",\"healthcare\"=>\"hospital\",\"note:ja\"=>\"国土数値情報（公共施設データ）平成19年　国土交通省\",\"source_ref\"=>\"http://nlftp.mlit.go.jp/ksj/jpgis/datalist/KsjTmplt-P02-v2_0.html\"" }, "geometry": { "type": "Point", "coordinates": [ 139.709466, 35.680875 ] } },
{ "type": "Feature", "properties": { "osm_id": "1428786189", "name": "フレッシュネスバーガー", "barrier": null, "highway": null, "ref": null, "address": null, "is_in": null, "place": null, "man_made": null, "other_tags": "\"amenity\"=>\"fast_food\",\"branch\"=>\"新宿御苑店\",\"brand\"=>\"フレッシュネスバーガー\",\"brand:en\"=>\"Freshness Burger\",\"brand:ja\"=>\"フレッシュネスバーガー\",\"brand:wikidata\"=>\"Q5503087\",\"brand:wikipedia\"=>\"ja:フレッシュネスバーガー\",\"cuisine\"=>\"burger\",\"name:en\"=>\"Freshness Burger\",\"name:ja\"=>\"フレッシュネスバーガー\",\"name:ja_kana\"=>\"フレッシュネスバーガー\",\"takeaway\"=>\"yes\"" }, "geometry": { "type": "Point", "coordinates": [ 139.7086004, 35.6890179 ] } },
{ "type": "Feature", "properties": { "osm_id": "1504865089", "name": "千駄ヶ谷五丁目", "barrier": null, "highway": "traffic_signals", "ref": null, "address": null, "is_in": null, "place": null, "man_made": null, "other_tags": "\"name:en\"=>\"Sendagaya 5\",\"name:ja\"=>\"千駄ヶ谷五丁目\",\"traffic_signals\"=>\"signal\"" }, "geometry": { "type": "Point", "coordinates": [ 139.7039792, 35.6845758 ] } },
{ "type": "Feature", "properties": { "osm_id": "1504865400", "name": "新宿四丁目", "barrier": null, "highway": null, "ref": null, "address": null, "is_in": null, "place": null, "man_made": null, "other_tags": "\"junction\"=>\"yes\",\"name:en\"=>\"Shinjuku 4\",\"name:ja\"=>\"新宿四丁目\"" }, "geometry": { "type": "Point", "coordinates": [ 139.7041519, 35.689711 ] } },
{ "type": "Feature", "properties": { "osm_id": "1582702939", "name": "鳩森小学校西", "barrier": null, "highway": "traffic_signals", "ref": null, "address": null, "is_in": null, "place": null, "man_made": null, "other_tags": "\"name:en\"=>\"Hatomori Elem. Sch. W.\",\"name:ja\"=>\"鳩森小学校西\",\"name:ja_kana\"=>\"はともりしょうがっこうにし\"" }, "geometry": { "type": "Point", "coordinates": [ 139.70463, 35.6823444 ] } },
{ "type": "Feature", "properties": { "osm_id": "1582702940", "name": "鳩森小学校西", "barrier": null, "highway": "traffic_signals", "ref": null, "address": null, "is_in": null, "place": null, "man_made": null, "other_tags": "\"name:en\"=>\"Hatomori Elem. Sch. W.\",\"name:ja\"=>\"鳩森小学校西\",\"name:ja_kana\"=>\"はともりしょうがっこうにし\"" }, "geometry": { "type": "Point", "coordinates": [ 139.704533700000013, 35.6824206 ] } },
{ "type": "Feature", "properties": { "osm_id": "1626142085", "name": null, "barrier": null, "highway": null, "ref": null, "address": null, "is_in": null, "place": null, "man_made": null, "other_tags": "\"junction\"=>\"yes\"" }, "geometry": { "type": "Point", "coordinates": [ 139.706518499999987, 35.6893616 ] } },
{ "type": "Feature", "properties": { "osm_id": "1626142101", "name": "新宿二丁目", "barrier": null, "highway": null, "ref": null, "address": null, "is_in": null, "place": null, "man_made": null, "other_tags": "\"junction\"=>\"yes\",\"name:en\"=>\"Shinjuku 2-chome\",\"name:ja\"=>\"新宿二丁目\",\"name:ja-Hira\"=>\"しんじゅく2ちょうめ\",\"name:ja-Latn\"=>\"Shinjuku 2-chome\"" }, "geometry": { "type": "Point", "coordinates": [ 139.7068502, 35.6899682 ] } },
{ "type": "Feature", "properties": { "osm_id": "1655905783", "name": "千駄ヶ谷荘", "barrier": null, "highway": null, "ref": null, "address": null, "is_in": null, "place": null, "man_made": null, "other_tags": "\"amenity\"=>\"social_facility\",\"KSJ2:AdminArea\"=>\"東京都渋谷区\",\"KSJ2:ADS\"=>\"千駄ヶ谷5-34-3\",\"KSJ2:PubFacAdmin\"=>\"市区町村\",\"note:ja\"=>\"国土数値情報（公共施設データ）平成19年　国土交通省\",\"social_facility\"=>\"group_home\",\"source_ref\"=>\"http://nlftp.mlit.go.jp/ksj/jpgis/datalist/KsjTmplt-P02-v2_0.html\"" }, "geometry": { "type": "Point", "coordinates": [ 139.703632, 35.687791 ] } },
{ "type": "Feature", "properties": { "osm_id": "1655925306", "name": "聴力障害者情報文化センター", "barrier": null, "highway": null, "ref": null, "address": null, "is_in": null, "place": null, "man_made": null, "other_tags": "\"amenity\"=>\"social_facility\",\"KSJ2:AdminArea\"=>\"東京都新宿区\",\"KSJ2:ADS\"=>\"新宿1-23-1新宿マルネビル\",\"KSJ2:PubFacAdmin\"=>\"民間\",\"note:ja\"=>\"国土数値情報（公共施設データ）平成19年　国土交通省\",\"social_facility\"=>\"assisted_living\",\"source_ref\"=>\"http://nlftp.mlit.go.jp/ksj/jpgis/datalist/KsjTmplt-P02-v2_0.html\"" }, "geometry": { "type": "Point", "coordinates": [ 139.714159, 35.688763 ] } },
{ "type": "Feature", "properties": { "osm_id": "1664033576", "name": "花園小学校東", "barrier": null, "highway": null, "ref": null, "address": null, "is_in": null, "place": null, "man_made": null, "other_tags": "\"junction\"=>\"yes\",\"name:en\"=>\"Hanazono Shogakko Higashi\",\"traffic_signals\"=>\"crossing\"" }, "geometry": { "type": "Point", "coordinates": [ 139.7146377, 35.6895663 ] } },
{ "type": "Feature", "properties": { "osm_id": "1664033641", "name": "富久町", "barrier": null, "highway": null, "ref": null, "address": null, "is_in": null, "place": null, "man_made": null, "other_tags": "\"junction\"=>\"yes\"" }, "geometry": { "type": "Point", "coordinates": [ 139.7166814, 35.6912647 ] } },
{ "type": "Feature", "properties": { "osm_id": "1665929600", "name": null, "barrier": "gate", "highway": null, "ref": null, "address": null, "is_in": null, "place": null, "man_made": null, "other_tags": null }, "geometry": { "type": "Point", "coordinates": [ 139.713970499999988, 35.6872437 ] } },
{ "type": "Feature", "properties": { "osm_id": "1665929618", "name": null, "barrier": null, "highway": "crossing", "ref": null, "address": null, "is_in": null, "place": null, "man_made": null, "other_tags": "\"crossing\"=>\"traffic_signals\"" }, "geometry": { "type": "Point", "coordinates": [ 139.7153859, 35.6899482 ] } },
{ "type": "Feature", "properties": { "osm_id": "1676749742", "name": "青山街道踏切", "barrier": null, "highway": null, "ref": null, "address": null, "is_in": null, "place": null, "man_made": null, "other_tags": "\"crossing:barrier\"=>\"double_half\",\"crossing:bell\"=>\"yes\",\"crossing:light\"=>\"yes\",\"distance\"=>\"9.789\",\"maxheight\"=>\"4.5\",\"railway\"=>\"level_crossing\",\"width\"=>\"6.3\"" }, "geometry": { "type": "Point", "coordinates": [ 139.703037099999989, 35.6820089 ] } },
{ "type": "Feature", "properties": { "osm_id": "1676749743", "name": "青山街道踏切", "barrier": null, "highway": null, "ref": null, "address": null, "is_in": null, "place": null, "man_made": null, "other_tags": "\"crossing:barrier\"=>\"double_half\",\"crossing:bell\"=>\"yes\",\"crossing:light\"=>\"yes\",\"distance\"=>\"9.789\",\"maxheight\"=>\"4.5\",\"railway\"=>\"level_crossing\",\"width\"=>\"6.3\"" }, "geometry": { "type": "Point", "coordinates": [ 139.7029554, 35.6820776 ] } },
{ "type": "Feature", "properties": { "osm_id": "1676868729", "name": null, "barrier": null, "highway": null, "ref": "E5", "address": null, "is_in": null, "place": null, "man_made": null, "other_tags": "\"railway\"=>\"subway_entrance\",\"wheelchair\"=>\"yes\"" }, "geometry": { "type": "Point", "coordinates": [ 139.7039044, 35.6892354 ] } },
{ "type": "Feature", "properties": { "osm_id": "1681472716", "name": null, "barrier": null, "highway": "traffic_signals", "ref": null, "address": null, "is_in": null, "place": null, "man_made": null, "other_tags": "\"traffic_signals:direction\"=>\"forward\"" }, "geometry": { "type": "Point", "coordinates": [ 139.715497199999987, 35.687449 ] } },
{ "type": "Feature", "properties": { "osm_id": "1681472717", "name": null, "barrier": null, "highway": "crossing", "ref": null, "address": null, "is_in": null, "place": null, "man_made": null, "other_tags": "\"crossing\"=>\"traffic_signals\"" }, "geometry": { "type": "Point", "coordinates": [ 139.716125299999987, 35.6874664 ] } },
{ "type": "Feature", "properties": { "osm_id": "1681472793", "name": null, "barrier": "gate", "highway": null, "ref": null, "address": null, "is_in": null, "place": null, "man_made": null, "other_tags": null }, "geometry": { "type": "Point", "coordinates": [ 139.7080765, 35.68853 ] } },
{ "type": "Feature", "properties": { "osm_id": "1681472825", "name": null, "barrier": null, "highway": "crossing", "ref": null, "address": null, "is_in": null, "place": null, "man_made": null, "other_tags": "\"crossing\"=>\"traffic_signals\",\"crossing:markings\"=>\"zebra\"" }, "geometry": { "type": "Point", "coordinates": [ 139.7065953, 35.6893066 ] } },
{ "type": "Feature", "properties": { "osm_id": "1681472939", "name": null, "barrier": null, "highway": "crossing", "ref": null, "address": null, "is_in": null, "place": null, "man_made": null, "other_tags": "\"bicycle\"=>\"designated\",\"crossing\"=>\"traffic_signals\",\"crossing:markings\"=>\"zebra\"" }, "geometry": { "type": "Point", "coordinates": [ 139.706795, 35.6897979 ] } },
{ "type": "Feature", "properties": { "osm_id": "1736486543", "name": null, "barrier": "toll_booth", "highway": null, "ref": null, "address": null, "is_in": null, "place": null, "man_made": null, "other_tags": null }, "geometry": { "type": "Point", "coordinates": [ 139.713274899999988, 35.680488 ] } },
{ "type": "Feature", "properties": { "osm_id": "1736486551", "name": null, "barrier": null, "highway": "crossing", "ref": null, "address": null, "is_in": null, "place": null, "man_made": null, "other_tags": "\"crossing\"=>\"marked\",\"crossing:markings\"=>\"yes\"" }, "geometry": { "type": "Point", "coordinates": [ 139.7127367, 35.6809936 ] } },
{ "type": "Feature", "properties": { "osm_id": "1774195133", "name": "北参道", "barrier": null, "highway": "traffic_signals", "ref": null, "address": null, "is_in": null, "place": null, "man_made": null, "other_tags": "\"name:en\"=>\"Kita-sando\",\"name:ja\"=>\"北参道\"" }, "geometry": { "type": "Point", "coordinates": [ 139.7045987, 35.6803745 ] } },
{ "type": "Feature", "properties": { "osm_id": "1806870870", "name": "四谷三丁目", "barrier": null, "highway": "traffic_signals", "ref": null, "address": null, "is_in": null, "place": null, "man_made": null, "other_tags": "\"name:en\"=>\"Yotsuya 3-chome\",\"name:ja\"=>\"四谷三丁目\",\"name:ko\"=>\"요츠야 3초메\"" }, "geometry": { "type": "Point", "coordinates": [ 139.7204031, 35.6880278 ] } },
{ "type": "Feature", "properties": { "osm_id": "1808422623", "name": "大京町交番前", "barrier": null, "highway": "traffic_signals", "ref": null, "address": null, "is_in": null, "place": null, "man_made": null, "other_tags": null }, "geometry": { "type": "Point", "coordinates": [ 139.7159196, 35.6833339 ] } },
{ "type": "Feature", "properties": { "osm_id": "1813858066", "name": null, "barrier": null, "highway": null, "ref": null, "address": null, "is_in": null, "place": null, "man_made": null, "other_tags": "\"noexit\"=>\"yes\"" }, "geometry": { "type": "Point", "coordinates": [ 139.7034578, 35.6871947 ] } },
{ "type": "Feature", "properties": { "osm_id": "1910264885", "name": null, "barrier": null, "highway": null, "ref": null, "address": null, "is_in": null, "place": null, "man_made": null, "other_tags": "\"amenity\"=>\"telephone\",\"covered\"=>\"booth\"" }, "geometry": { "type": "Point", "coordinates": [ 139.711368, 35.6883807 ] } },
{ "type": "Feature", "properties": { "osm_id": "1910264944", "name": "丸亀製麺", "barrier": null, "highway": null, "ref": null, "address": null, "is_in": null, "place": null, "man_made": null, "other_tags": "\"amenity\"=>\"restaurant\",\"branch\"=>\"新宿御苑前店\",\"brand\"=>\"丸亀製麺\",\"brand:en\"=>\"Marugame Seimen\",\"brand:ja\"=>\"丸亀製麺\",\"brand:wikidata\"=>\"Q10877253\",\"brand:wikipedia\"=>\"ja:丸亀製麺\",\"cuisine\"=>\"noodle\",\"name:en\"=>\"Marugame Seimen\",\"name:ja\"=>\"丸亀製麺\",\"operator\"=>\"トリドール\"" }, "geometry": { "type": "Point", "coordinates": [ 139.71168990000001, 35.688241 ] } },
{ "type": "Feature", "properties": { "osm_id": "1935352200", "name": "セブン-イレブン", "barrier": null, "highway": null, "ref": null, "address": null, "is_in": null, "place": null, "man_made": null, "other_tags": "\"addr:block_number\"=>\"3\",\"addr:city\"=>\"新宿区\",\"addr:housenumber\"=>\"11\",\"addr:neighbourhood\"=>\"2\",\"addr:postcode\"=>\"160-0022\",\"addr:province\"=>\"東京都\",\"addr:quarter\"=>\"新宿\",\"atm\"=>\"yes\",\"branch\"=>\"新宿2丁目\",\"brand\"=>\"7-ELEVEN\",\"brand:en\"=>\"7-ELEVEN\",\"brand:ja\"=>\"セブン-イレブン\",\"brand:wikidata\"=>\"Q259340\",\"brand:wikipedia\"=>\"en:7-Eleven\",\"internet_access\"=>\"wlan\",\"level\"=>\"0\",\"name:en\"=>\"7-Eleven\",\"name:it\"=>\"7 Eleven\",\"name:ja\"=>\"セブン-イレブン\",\"name:ja-Latn\"=>\"Sebun Irebun\",\"name:ko\"=>\"세븐일레븐\",\"official_name:en\"=>\"Seven-Eleven\",\"opening_hours\"=>\"24/7\",\"operator\"=>\"セブンイレブン・ジャパン\",\"phone\"=>\"+81-3-33552249\",\"shop\"=>\"convenience\",\"website\"=>\"https://www.sej.co.jp/\"" }, "geometry": { "type": "Point", "coordinates": [ 139.707919299999986, 35.6893077 ] } },
{ "type": "Feature", "properties": { "osm_id": "1943752307", "name": null, "barrier": "cycle_barrier", "highway": null, "ref": null, "address": null, "is_in": null, "place": null, "man_made": null, "other_tags": "\"foot\"=>\"yes\"" }, "geometry": { "type": "Point", "coordinates": [ 139.714863799999989, 35.6871156 ] } },
{ "type": "Feature", "properties": { "osm_id": "1943752343", "name": null, "barrier": null, "highway": "crossing", "ref": null, "address": null, "is_in": null, "place": null, "man_made": null, "other_tags": "\"bicycle\"=>\"designated\",\"crossing\"=>\"traffic_signals\"" }, "geometry": { "type": "Point", "coordinates": [ 139.715584299999989, 35.6876032 ] } },
{ "type": "Feature", "properties": { "osm_id": "1943752351", "name": null, "barrier": null, "highway": "crossing", "ref": null, "address": null, "is_in": null, "place": null, "man_made": null, "other_tags": "\"crossing\"=>\"traffic_signals\"" }, "geometry": { "type": "Point", "coordinates": [ 139.715589099999988, 35.6876296 ] } },
{ "type": "Feature", "properties": { "osm_id": "1943752504", "name": "花園小学校東", "barrier": null, "highway": "traffic_signals", "ref": null, "address": null, "is_in": null, "place": null, "man_made": null, "other_tags": "\"name:en\"=>\"Hanazono Shogakko Higashi\",\"traffic_signals\"=>\"traffic_lights\",\"traffic_signals:direction\"=>\"backward\"" }, "geometry": { "type": "Point", "coordinates": [ 139.71453120000001, 35.6894793 ] } },
{ "type": "Feature", "properties": { "osm_id": "1943752530", "name": null, "barrier": null, "highway": "crossing", "ref": null, "address": null, "is_in": null, "place": null, "man_made": null, "other_tags": "\"crossing\"=>\"traffic_signals\"" }, "geometry": { "type": "Point", "coordinates": [ 139.7154729, 35.689986 ] } },
{ "type": "Feature", "properties": { "osm_id": "1951952365", "name": null, "barrier": null, "highway": null, "ref": null, "address": null, "is_in": null, "place": null, "man_made": null, "other_tags": "\"railway\"=>\"switch\"" }, "geometry": { "type": "Point", "coordinates": [ 139.702276399999988, 35.6609165 ] } },
{ "type": "Feature", "properties": { "osm_id": "1951952367", "name": "北参道", "barrier": null, "highway": null, "ref": "F14", "address": null, "is_in": null, "place": null, "man_made": null, "other_tags": "\"name:en\"=>\"Kita-sando\",\"name:es\"=>\"Kita-sando\",\"name:ja\"=>\"北参道\",\"name:ja_kana\"=>\"きたさんどう\",\"name:ja_rm\"=>\"Kita sandō\",\"name:ko\"=>\"기타산도\",\"name:ru\"=>\"Кита-Сандо\",\"operator\"=>\"東京地下鉄\",\"platforms\"=>\"2\",\"public_transport\"=>\"stop_position\",\"railway\"=>\"stop\",\"station\"=>\"subway\",\"subway\"=>\"yes\",\"wheelchair\"=>\"yes\",\"wikidata\"=>\"Q128322\",\"wikipedia\"=>\"ja:北参道駅\"" }, "geometry": { "type": "Point", "coordinates": [ 139.7054087, 35.6784659 ] } },
{ "type": "Feature", "properties": { "osm_id": "1951952383", "name": "新宿三丁目", "barrier": null, "highway": null, "ref": "F13", "address": null, "is_in": null, "place": null, "man_made": null, "other_tags": "\"name:en\"=>\"Shinjuku-sanchome\",\"name:es\"=>\"Shinjuku-sanchome\",\"name:ja\"=>\"新宿三丁目\",\"name:ja_kana\"=>\"しんじゅくさんちょうめ\",\"name:ja_rm\"=>\"Shinjuku sanchōme\",\"name:ru\"=>\"Синдзюку Сантёмэ\",\"operator\"=>\"東京地下鉄\",\"public_transport\"=>\"stop_position\",\"railway\"=>\"stop\",\"subway\"=>\"yes\",\"wheelchair\"=>\"no\",\"wheelchair:description\"=>\"A2出口です。向かいの伊勢丹出口か大塚家具側にエレベーターあります。\",\"wikidata\"=>\"Q1147009\",\"wikipedia\"=>\"ja:新宿三丁目駅\"" }, "geometry": { "type": "Point", "coordinates": [ 139.7048163, 35.6906889 ] } },
{ "type": "Feature", "properties": { "osm_id": "1951953896", "name": null, "barrier": null, "highway": null, "ref": null, "address": null, "is_in": null, "place": null, "man_made": null, "other_tags": "\"railway\"=>\"switch\"" }, "geometry": { "type": "Point", "coordinates": [ 139.70749090000001, 35.6977314 ] } },
{ "type": "Feature", "properties": { "osm_id": "1951954570", "name": "西早稲田", "barrier": null, "highway": null, "ref": "F11", "address": null, "is_in": null, "place": null, "man_made": null, "other_tags": "\"name:en\"=>\"Nishi-waseda\",\"name:es\"=>\"Nishi-waseda\",\"name:ja\"=>\"西早稲田\",\"name:ja_kana\"=>\"にしわせだ\",\"name:ja_rm\"=>\"Nishi Waseda\",\"name:ko\"=>\"니시와세다\",\"name:ru\"=>\"Ниси-Васэда\",\"operator\"=>\"東京地下鉄\",\"platforms\"=>\"2\",\"public_transport\"=>\"stop_position\",\"railway\"=>\"stop\",\"station\"=>\"subway\",\"subway\"=>\"yes\",\"wikidata\"=>\"Q128305\",\"wikipedia\"=>\"ja:西早稲田駅\"" }, "geometry": { "type": "Point", "coordinates": [ 139.709064399999988, 35.7079175 ] } },
{ "type": "Feature", "properties": { "osm_id": "1951959633", "name": null, "barrier": null, "highway": null, "ref": null, "address": null, "is_in": null, "place": null, "man_made": null, "other_tags": "\"crossing\"=>\"traffic_signals\"" }, "geometry": { "type": "Point", "coordinates": [ 139.7154897, 35.7283461 ] } },
{ "type": "Feature", "properties": { "osm_id": "1973619896", "name": "昭和シェル", "barrier": null, "highway": null, "ref": null, "address": null, "is_in": null, "place": null, "man_made": null, "other_tags": "\"addr:full\"=>\"東京都渋谷区千駄ヶ谷5-28\",\"addr:postcode\"=>\"151-0051\",\"amenity\"=>\"fuel\",\"branch\"=>\"セルフ高島屋前SS\",\"brand\"=>\"シェル\",\"brand:en\"=>\"Shell\",\"brand:ja\"=>\"シェル\",\"brand:wikidata\"=>\"Q110716465\",\"brand:wikipedia\"=>\"en:Showa Shell Sekiyu\",\"fax\"=>\"+81-3-33542473\",\"fuel:diesel\"=>\"yes\",\"fuel:octane_91\"=>\"yes\",\"fuel:octane_98\"=>\"yes\",\"kerosene\"=>\"yes\",\"level\"=>\"0\",\"name:en\"=>\"Showa Shell Sekiyu\",\"name:ja\"=>\"昭和シェル\",\"name:ja_rm\"=>\"Showa Sheru\",\"opening_hours\"=>\"24/7\",\"operator\"=>\"ヤマヒロ\",\"payment:cash\"=>\"yes\",\"phone\"=>\"+81-3-33541951\",\"website\"=>\"http://www.showa-shell.co.jp/\"" }, "geometry": { "type": "Point", "coordinates": [ 139.704036800000011, 35.6848723 ] } },
{ "type": "Feature", "properties": { "osm_id": "1986321852", "name": "千駄ヶ谷門", "barrier": "gate", "highway": null, "ref": null, "address": null, "is_in": null, "place": null, "man_made": null, "other_tags": "\"access\"=>\"customers\",\"foot\"=>\"yes\"" }, "geometry": { "type": "Point", "coordinates": [ 139.708846200000011, 35.6824631 ] } },
{ "type": "Feature", "properties": { "osm_id": "1986326956", "name": "正門", "barrier": "gate", "highway": null, "ref": null, "address": null, "is_in": null, "place": null, "man_made": null, "other_tags": "\"access\"=>\"private\"" }, "geometry": { "type": "Point", "coordinates": [ 139.7149853, 35.6823689 ] } },
{ "type": "Feature", "properties": { "osm_id": "1986327007", "name": "管理門", "barrier": "gate", "highway": null, "ref": null, "address": null, "is_in": null, "place": null, "man_made": null, "other_tags": null }, "geometry": { "type": "Point", "coordinates": [ 139.709902, 35.6880184 ] } },
{ "type": "Feature", "properties": { "osm_id": "1986327011", "name": "旧新宿門", "barrier": "gate", "highway": null, "ref": null, "address": null, "is_in": null, "place": null, "man_made": null, "other_tags": null }, "geometry": { "type": "Point", "coordinates": [ 139.7088745, 35.6883052 ] } },
{ "type": "Feature", "properties": { "osm_id": "1986327021", "name": "大木戸門", "barrier": "gate", "highway": null, "ref": null, "address": null, "is_in": null, "place": null, "man_made": null, "other_tags": "\"access\"=>\"customers\",\"name:en\"=>\"Okido Gate\"" }, "geometry": { "type": "Point", "coordinates": [ 139.713598499999989, 35.6867784 ] } },
{ "type": "Feature", "properties": { "osm_id": "2237058633", "name": "ヘアーショップ アライ", "barrier": null, "highway": null, "ref": null, "address": null, "is_in": null, "place": null, "man_made": null, "other_tags": "\"opening_hours\"=>\"Tu-Su 09:00-19:00\",\"shop\"=>\"hairdresser\"" }, "geometry": { "type": "Point", "coordinates": [ 139.7055633, 35.6829585 ] } },
{ "type": "Feature", "properties": { "osm_id": "2237058635", "name": "レストラン みのる", "barrier": null, "highway": null, "ref": null, "address": null, "is_in": null, "place": null, "man_made": null, "other_tags": "\"amenity\"=>\"restaurant\",\"name:en\"=>\"Restaurant Minoru\",\"smoking\"=>\"yes\"" }, "geometry": { "type": "Point", "coordinates": [ 139.7056336, 35.6830832 ] } },
{ "type": "Feature", "properties": { "osm_id": "2237078525", "name": null, "barrier": "cycle_barrier", "highway": null, "ref": null, "address": null, "is_in": null, "place": null, "man_made": null, "other_tags": "\"foot\"=>\"yes\"" }, "geometry": { "type": "Point", "coordinates": [ 139.7055947, 35.6825011 ] } },
{ "type": "Feature", "properties": { "osm_id": "2237078529", "name": null, "barrier": "cycle_barrier", "highway": null, "ref": null, "address": null, "is_in": null, "place": null, "man_made": null, "other_tags": "\"foot\"=>\"yes\"" }, "geometry": { "type": "Point", "coordinates": [ 139.7053721, 35.6826075 ] } },
{ "type": "Feature", "properties": { "osm_id": "2237209330", "name": "ローソン", "barrier": null, "highway": null, "ref": null, "address": null, "is_in": null, "place": null, "man_made": null, "other_tags": "\"branch\"=>\"国立能楽堂前\",\"brand\"=>\"LAWSON\",\"brand:en\"=>\"LAWSON\",\"brand:ja\"=>\"ローソン\",\"brand:wikidata\"=>\"Q1557223\",\"brand:wikipedia\"=>\"ja:ローソン\",\"name:en\"=>\"Lawson\",\"name:es\"=>\"Lawson\",\"name:ja\"=>\"ローソン\",\"name:ja_rm\"=>\"Rōson\",\"name:ko\"=>\"로손\",\"opening_hours\"=>\"24/7\",\"operator\"=>\"ローソン\",\"phone\"=>\"+81-3-3405-4699\",\"shop\"=>\"convenience\"" }, "geometry": { "type": "Point", "coordinates": [ 139.7068473, 35.6809977 ] } },
{ "type": "Feature", "properties": { "osm_id": "2237209333", "name": "中央医院", "barrier": null, "highway": null, "ref": null, "address": null, "is_in": null, "place": null, "man_made": null, "other_tags": "\"amenity\"=>\"doctors\",\"healthcare\"=>\"doctor\"" }, "geometry": { "type": "Point", "coordinates": [ 139.7069473, 35.6817419 ] } },
{ "type": "Feature", "properties": { "osm_id": "2237272256", "name": "ファミリーマート", "barrier": null, "highway": null, "ref": null, "address": null, "is_in": null, "place": null, "man_made": null, "other_tags": "\"branch\"=>\"千駄ヶ谷鳩森店\",\"brand\"=>\"FamilyMart\",\"brand:en\"=>\"FamilyMart\",\"brand:ja\"=>\"ファミリーマート\",\"brand:wikidata\"=>\"Q1191685\",\"brand:wikipedia\"=>\"ja:ファミリーマート\",\"name:en\"=>\"FamilyMart\",\"name:ja\"=>\"ファミリーマート\",\"name:ja_rm\"=>\"Famirī Mato\",\"opening_hours\"=>\"24/7\",\"operator\"=>\"ファミリーマート\",\"phone\"=>\"+81-3-5919-0814\",\"shop\"=>\"convenience\"" }, "geometry": { "type": "Point", "coordinates": [ 139.704784499999988, 35.6823509 ] } },
{ "type": "Feature", "properties": { "osm_id": "2237272261", "name": "代々木アニメーション学院", "barrier": null, "highway": null, "ref": null, "address": null, "is_in": null, "place": null, "man_made": null, "other_tags": "\"amenity\"=>\"college\",\"name:en\"=>\"Yoyogi Animation Gakuin\"" }, "geometry": { "type": "Point", "coordinates": [ 139.705661099999986, 35.6817812 ] } },
{ "type": "Feature", "properties": { "osm_id": "2237341763", "name": null, "barrier": null, "highway": null, "ref": null, "address": null, "is_in": null, "place": null, "man_made": null, "other_tags": "\"amenity\"=>\"vending_machine\",\"payment:coins\"=>\"yes\",\"vending\"=>\"drinks\"" }, "geometry": { "type": "Point", "coordinates": [ 139.7068926, 35.6819134 ] } },
{ "type": "Feature", "properties": { "osm_id": "2237341769", "name": null, "barrier": null, "highway": null, "ref": null, "address": null, "is_in": null, "place": null, "man_made": null, "other_tags": "\"amenity\"=>\"vending_machine\",\"payment:coins\"=>\"yes\",\"vending\"=>\"drinks\"" }, "geometry": { "type": "Point", "coordinates": [ 139.7069085, 35.6819333 ] } },
{ "type": "Feature", "properties": { "osm_id": "2256144254", "name": "千駄ケ谷", "barrier": null, "highway": null, "ref": null, "address": null, "is_in": null, "place": null, "man_made": null, "other_tags": "\"local_ref\"=>\"1\",\"name:en\"=>\"Sendagaya\",\"name:es\"=>\"Sendagaya\",\"name:it\"=>\"Sendagaya\",\"public_transport\"=>\"stop_position\",\"railway\"=>\"stop\",\"train\"=>\"yes\"" }, "geometry": { "type": "Point", "coordinates": [ 139.7113556, 35.681217 ] } },
{ "type": "Feature", "properties": { "osm_id": "2270209179", "name": "Curry 草枕", "barrier": null, "highway": null, "ref": null, "address": null, "is_in": null, "place": null, "man_made": null, "other_tags": "\"amenity\"=>\"restaurant\",\"cuisine\"=>\"curry\",\"opening_hours\"=>\"Tu-Su 11:30-15:00,18:00-21:00\",\"phone\"=>\"03-5379-0790\",\"website\"=>\"https://currykusa.com/\"" }, "geometry": { "type": "Point", "coordinates": [ 139.707435, 35.689122 ] } },
{ "type": "Feature", "properties": { "osm_id": "2280500585", "name": "100円ショップ", "barrier": null, "highway": null, "ref": null, "address": null, "is_in": null, "place": null, "man_made": null, "other_tags": "\"shop\"=>\"variety_store\"" }, "geometry": { "type": "Point", "coordinates": [ 139.7096157, 35.6889602 ] } },
{ "type": "Feature", "properties": { "osm_id": "2337802227", "name": "GPSストア", "barrier": null, "highway": null, "ref": null, "address": null, "is_in": null, "place": null, "man_made": null, "other_tags": "\"name:en\"=>\"GPS Store\",\"shop\"=>\"outdoor\",\"website\"=>\"gpsstore.jp\"" }, "geometry": { "type": "Point", "coordinates": [ 139.705335, 35.682057 ] } },
{ "type": "Feature", "properties": { "osm_id": "2375682573", "name": null, "barrier": null, "highway": null, "ref": null, "address": null, "is_in": null, "place": null, "man_made": null, "other_tags": "\"amenity\"=>\"bench\"" }, "geometry": { "type": "Point", "coordinates": [ 139.713353, 35.684443 ] } },
{ "type": "Feature", "properties": { "osm_id": "2375683808", "name": null, "barrier": null, "highway": null, "ref": null, "address": null, "is_in": null, "place": null, "man_made": null, "other_tags": "\"amenity\"=>\"toilets\"" }, "geometry": { "type": "Point", "coordinates": [ 139.7132595, 35.6847844 ] } },
{ "type": "Feature", "properties": { "osm_id": "2375685360", "name": null, "barrier": null, "highway": null, "ref": null, "address": null, "is_in": null, "place": null, "man_made": null, "other_tags": "\"amenity\"=>\"bench\"" }, "geometry": { "type": "Point", "coordinates": [ 139.7124325, 35.6854793 ] } },
{ "type": "Feature", "properties": { "osm_id": "2375685411", "name": null, "barrier": null, "highway": null, "ref": null, "address": null, "is_in": null, "place": null, "man_made": null, "other_tags": "\"amenity\"=>\"bench\"" }, "geometry": { "type": "Point", "coordinates": [ 139.712457, 35.685907 ] } },
{ "type": "Feature", "properties": { "osm_id": "2375692281", "name": "温室の遺構", "barrier": null, "highway": null, "ref": null, "address": null, "is_in": null, "place": null, "man_made": null, "other_tags": "\"historic\"=>\"archaeological_site\",\"name:en\"=>\"Remains of Conservatory\",\"name:es\"=>\"Restos de conservatorio\"" }, "geometry": { "type": "Point", "coordinates": [ 139.712172, 35.686965 ] } },
{ "type": "Feature", "properties": { "osm_id": "2375692364", "name": null, "barrier": null, "highway": null, "ref": null, "address": null, "is_in": null, "place": null, "man_made": null, "other_tags": "\"amenity\"=>\"toilets\"" }, "geometry": { "type": "Point", "coordinates": [ 139.712321, 35.686835 ] } },
{ "type": "Feature", "properties": { "osm_id": "2375698175", "name": null, "barrier": null, "highway": null, "ref": null, "address": null, "is_in": null, "place": null, "man_made": null, "other_tags": "\"amenity\"=>\"bench\"" }, "geometry": { "type": "Point", "coordinates": [ 139.713206, 35.686181 ] } },
{ "type": "Feature", "properties": { "osm_id": "2375701528", "name": null, "barrier": null, "highway": null, "ref": null, "address": null, "is_in": null, "place": null, "man_made": null, "other_tags": "\"amenity\"=>\"toilets\"" }, "geometry": { "type": "Point", "coordinates": [ 139.7130809, 35.6859534 ] } },
{ "type": "Feature", "properties": { "osm_id": "2375705842", "name": null, "barrier": null, "highway": null, "ref": null, "address": null, "is_in": null, "place": null, "man_made": null, "other_tags": "\"amenity\"=>\"bench\"" }, "geometry": { "type": "Point", "coordinates": [ 139.711061, 35.682593 ] } },
{ "type": "Feature", "properties": { "osm_id": "2375705866", "name": null, "barrier": null, "highway": null, "ref": null, "address": null, "is_in": null, "place": null, "man_made": null, "other_tags": "\"amenity\"=>\"bench\",\"backrest\"=>\"yes\",\"mapillary\"=>\"931416590976200\",\"survey:date\"=>\"2019-08-27\"" }, "geometry": { "type": "Point", "coordinates": [ 139.710882, 35.682714 ] } },
{ "type": "Feature", "properties": { "osm_id": "2375705930", "name": null, "barrier": null, "highway": null, "ref": null, "address": null, "is_in": null, "place": null, "man_made": null, "other_tags": "\"amenity\"=>\"bench\"" }, "geometry": { "type": "Point", "coordinates": [ 139.710673, 35.682886 ] } },
{ "type": "Feature", "properties": { "osm_id": "2375705953", "name": null, "barrier": null, "highway": null, "ref": null, "address": null, "is_in": null, "place": null, "man_made": null, "other_tags": "\"amenity\"=>\"bench\"" }, "geometry": { "type": "Point", "coordinates": [ 139.710534, 35.683017 ] } },
{ "type": "Feature", "properties": { "osm_id": "2375705973", "name": null, "barrier": null, "highway": null, "ref": null, "address": null, "is_in": null, "place": null, "man_made": null, "other_tags": "\"amenity\"=>\"bench\"" }, "geometry": { "type": "Point", "coordinates": [ 139.71042, 35.683178 ] } },
{ "type": "Feature", "properties": { "osm_id": "2375706246", "name": null, "barrier": null, "highway": null, "ref": null, "address": null, "is_in": null, "place": null, "man_made": null, "other_tags": "\"amenity\"=>\"bench\"" }, "geometry": { "type": "Point", "coordinates": [ 139.7100678, 35.6828138 ] } },
{ "type": "Feature", "properties": { "osm_id": "2375706289", "name": null, "barrier": null, "highway": null, "ref": null, "address": null, "is_in": null, "place": null, "man_made": null, "other_tags": "\"amenity\"=>\"toilets\",\"check_date\"=>\"2022-10-26\",\"fee\"=>\"no\",\"wheelchair\"=>\"yes\"" }, "geometry": { "type": "Point", "coordinates": [ 139.709856, 35.6828 ] } },
{ "type": "Feature", "properties": { "osm_id": "2375706639", "name": null, "barrier": null, "highway": null, "ref": null, "address": null, "is_in": null, "place": null, "man_made": null, "other_tags": "\"amenity\"=>\"toilets\",\"wheelchair\"=>\"yes\"" }, "geometry": { "type": "Point", "coordinates": [ 139.709047, 35.682401 ] } },
{ "type": "Feature", "properties": { "osm_id": "2375708379", "name": null, "barrier": null, "highway": null, "ref": null, "address": null, "is_in": null, "place": null, "man_made": null, "other_tags": "\"amenity\"=>\"vending_machine\",\"vending\"=>\"drinks\"" }, "geometry": { "type": "Point", "coordinates": [ 139.707526, 35.682241 ] } },
{ "type": "Feature", "properties": { "osm_id": "2375772036", "name": null, "barrier": null, "highway": null, "ref": null, "address": null, "is_in": null, "place": null, "man_made": null, "other_tags": "\"amenity\"=>\"bench\"" }, "geometry": { "type": "Point", "coordinates": [ 139.7108777, 35.6820516 ] } },
{ "type": "Feature", "properties": { "osm_id": "2375808058", "name": null, "barrier": null, "highway": null, "ref": "SF121861", "address": null, "is_in": null, "place": null, "man_made": null, "other_tags": "\"amenity\"=>\"vending_machine\",\"check_date\"=>\"2023-10-10\",\"operator\"=>\"Hachiyoh\",\"vending\"=>\"drinks\"" }, "geometry": { "type": "Point", "coordinates": [ 139.707456400000012, 35.6827883 ] } },
{ "type": "Feature", "properties": { "osm_id": "2375808215", "name": null, "barrier": null, "highway": null, "ref": "138020266", "address": null, "is_in": null, "place": null, "man_made": null, "other_tags": "\"amenity\"=>\"vending_machine\",\"check_date\"=>\"2023-10-10\",\"operator\"=>\"ITO EN\",\"vending\"=>\"drinks\"" }, "geometry": { "type": "Point", "coordinates": [ 139.707451099999986, 35.6827808 ] } },
{ "type": "Feature", "properties": { "osm_id": "2375809841", "name": "タイムズ千駄ヶ谷第10", "barrier": null, "highway": null, "ref": null, "address": null, "is_in": null, "place": null, "man_made": null, "other_tags": "\"amenity\"=>\"parking\",\"covered\"=>\"no\",\"opening_hours\"=>\"24/7\",\"parking\"=>\"surface\",\"surface\"=>\"asphalt\"" }, "geometry": { "type": "Point", "coordinates": [ 139.706773, 35.683006 ] } },
{ "type": "Feature", "properties": { "osm_id": "2375810245", "name": null, "barrier": null, "highway": null, "ref": null, "address": null, "is_in": null, "place": null, "man_made": null, "other_tags": "\"amenity\"=>\"post_box\",\"collection_times\"=>\"Mo-Fr 09:05,13:15,14:55,18:25; Sa 09:05,14:25,18:25; PH,Su 08:25,13:25\"" }, "geometry": { "type": "Point", "coordinates": [ 139.706819, 35.683108 ] } },
{ "type": "Feature", "properties": { "osm_id": "2375811620", "name": null, "barrier": null, "highway": null, "ref": null, "address": null, "is_in": null, "place": null, "man_made": null, "other_tags": "\"amenity\"=>\"vending_machine\",\"check_date\"=>\"2022-10-26\",\"vending\"=>\"drinks\"" }, "geometry": { "type": "Point", "coordinates": [ 139.706139, 35.6835 ] } },
{ "type": "Feature", "properties": { "osm_id": "2375811787", "name": null, "barrier": null, "highway": null, "ref": null, "address": null, "is_in": null, "place": null, "man_made": null, "other_tags": "\"amenity\"=>\"vending_machine\",\"check_date\"=>\"2022-10-26\",\"vending\"=>\"drinks\"" }, "geometry": { "type": "Point", "coordinates": [ 139.706137, 35.683501 ] } },
{ "type": "Feature", "properties": { "osm_id": "2375813045", "name": "新宿御苑 避難門", "barrier": "gate", "highway": null, "ref": null, "address": null, "is_in": null, "place": null, "man_made": null, "other_tags": null }, "geometry": { "type": "Point", "coordinates": [ 139.704596, 35.68521 ] } },
{ "type": "Feature", "properties": { "osm_id": "2375813499", "name": null, "barrier": null, "highway": null, "ref": null, "address": null, "is_in": null, "place": null, "man_made": null, "other_tags": "\"amenity\"=>\"vending_machine\",\"check_date\"=>\"2022-10-26\",\"vending\"=>\"drinks\"" }, "geometry": { "type": "Point", "coordinates": [ 139.704467, 35.685349 ] } },
{ "type": "Feature", "properties": { "osm_id": "2375813940", "name": "東洋カーマックス千駄ヶ谷駐車場", "barrier": null, "highway": null, "ref": null, "address": null, "is_in": null, "place": null, "man_made": null, "other_tags": "\"amenity\"=>\"parking\",\"covered\"=>\"no\",\"name:en\"=>\"Toyo Car Max\",\"parking\"=>\"surface\",\"surface\"=>\"asphalt\"" }, "geometry": { "type": "Point", "coordinates": [ 139.704185, 35.686162 ] } },
{ "type": "Feature", "properties": { "osm_id": "2375815231", "name": null, "barrier": null, "highway": null, "ref": null, "address": null, "is_in": null, "place": null, "man_made": null, "other_tags": "\"amenity\"=>\"vending_machine\",\"vending\"=>\"drinks\"" }, "geometry": { "type": "Point", "coordinates": [ 139.703922, 35.687212 ] } },
{ "type": "Feature", "properties": { "osm_id": "2375816534", "name": "つけ麺 五ノ神製麺所", "barrier": null, "highway": null, "ref": null, "address": null, "is_in": null, "place": null, "man_made": null, "other_tags": "\"amenity\"=>\"restaurant\",\"name:en\"=>\"Gonokami Seisakujo\"" }, "geometry": { "type": "Point", "coordinates": [ 139.703857, 35.687392 ] } },
{ "type": "Feature", "properties": { "osm_id": "2375856586", "name": null, "barrier": null, "highway": null, "ref": null, "address": null, "is_in": null, "place": null, "man_made": null, "other_tags": "\"amenity\"=>\"vending_machine\",\"vending\"=>\"drinks\"" }, "geometry": { "type": "Point", "coordinates": [ 139.705401, 35.681236 ] } },
{ "type": "Feature", "properties": { "osm_id": "2375856725", "name": null, "barrier": null, "highway": null, "ref": null, "address": null, "is_in": null, "place": null, "man_made": null, "other_tags": "\"amenity\"=>\"vending_machine\",\"vending\"=>\"drinks\"" }, "geometry": { "type": "Point", "coordinates": [ 139.705401, 35.681263 ] } },
{ "type": "Feature", "properties": { "osm_id": "2375856931", "name": null, "barrier": null, "highway": null, "ref": null, "address": null, "is_in": null, "place": null, "man_made": null, "other_tags": "\"amenity\"=>\"vending_machine\",\"vending\"=>\"drinks\"" }, "geometry": { "type": "Point", "coordinates": [ 139.7061401, 35.6819403 ] } },
{ "type": "Feature", "properties": { "osm_id": "2375856969", "name": null, "barrier": null, "highway": null, "ref": null, "address": null, "is_in": null, "place": null, "man_made": null, "other_tags": "\"amenity\"=>\"vending_machine\",\"vending\"=>\"drinks\"" }, "geometry": { "type": "Point", "coordinates": [ 139.706150900000011, 35.6819528 ] } },
{ "type": "Feature", "properties": { "osm_id": "2375857039", "name": null, "barrier": null, "highway": null, "ref": null, "address": null, "is_in": null, "place": null, "man_made": null, "other_tags": "\"amenity\"=>\"vending_machine\",\"vending\"=>\"drinks\"" }, "geometry": { "type": "Point", "coordinates": [ 139.7061458, 35.6819474 ] } },
{ "type": "Feature", "properties": { "osm_id": "2375857260", "name": null, "barrier": null, "highway": null, "ref": null, "address": null, "is_in": null, "place": null, "man_made": null, "other_tags": "\"amenity\"=>\"vending_machine\",\"vending\"=>\"drinks\"" }, "geometry": { "type": "Point", "coordinates": [ 139.7063221, 35.681803 ] } },
{ "type": "Feature", "properties": { "osm_id": "2375857625", "name": null, "barrier": null, "highway": null, "ref": null, "address": null, "is_in": null, "place": null, "man_made": null, "other_tags": "\"amenity\"=>\"vending_machine\",\"vending\"=>\"drinks\"" }, "geometry": { "type": "Point", "coordinates": [ 139.7063571, 35.681788 ] } },
{ "type": "Feature", "properties": { "osm_id": "2376681203", "name": null, "barrier": null, "highway": null, "ref": null, "address": null, "is_in": null, "place": null, "man_made": null, "other_tags": "\"amenity\"=>\"bench\"" }, "geometry": { "type": "Point", "coordinates": [ 139.708634499999988, 35.6824163 ] } },
{ "type": "Feature", "properties": { "osm_id": "2376682120", "name": null, "barrier": null, "highway": null, "ref": null, "address": null, "is_in": null, "place": null, "man_made": null, "other_tags": "\"amenity\"=>\"bench\",\"covered\"=>\"no\"" }, "geometry": { "type": "Point", "coordinates": [ 139.708841, 35.68252 ] } },
{ "type": "Feature", "properties": { "osm_id": "2376682642", "name": null, "barrier": null, "highway": null, "ref": null, "address": null, "is_in": null, "place": null, "man_made": null, "other_tags": "\"amenity\"=>\"bench\",\"backrest\"=>\"yes\"" }, "geometry": { "type": "Point", "coordinates": [ 139.7086892, 35.6827791 ] } },
{ "type": "Feature", "properties": { "osm_id": "2376687810", "name": "シラカシ", "barrier": null, "highway": null, "ref": null, "address": null, "is_in": null, "place": null, "man_made": null, "other_tags": "\"natural\"=>\"wood\"" }, "geometry": { "type": "Point", "coordinates": [ 139.7094, 35.683027 ] } },
{ "type": "Feature", "properties": { "osm_id": "2376688064", "name": null, "barrier": null, "highway": null, "ref": null, "address": null, "is_in": null, "place": null, "man_made": null, "other_tags": "\"amenity\"=>\"bench\"" }, "geometry": { "type": "Point", "coordinates": [ 139.709912, 35.683783 ] } },
{ "type": "Feature", "properties": { "osm_id": "2376688500", "name": null, "barrier": null, "highway": null, "ref": null, "address": null, "is_in": null, "place": null, "man_made": null, "other_tags": "\"amenity\"=>\"bench\",\"backrest\"=>\"yes\"" }, "geometry": { "type": "Point", "coordinates": [ 139.708291, 35.683116 ] } },
{ "type": "Feature", "properties": { "osm_id": "2376691112", "name": null, "barrier": null, "highway": null, "ref": null, "address": null, "is_in": null, "place": null, "man_made": null, "other_tags": "\"amenity\"=>\"bench\",\"backrest\"=>\"yes\",\"mapillary\"=>\"1427262410949933\",\"survey:date\"=>\"2019-08-27\"" }, "geometry": { "type": "Point", "coordinates": [ 139.709379, 35.684111 ] } },
{ "type": "Feature", "properties": { "osm_id": "2376691117", "name": null, "barrier": null, "highway": null, "ref": null, "address": null, "is_in": null, "place": null, "man_made": null, "other_tags": "\"amenity\"=>\"bench\"" }, "geometry": { "type": "Point", "coordinates": [ 139.709564, 35.684018 ] } },
{ "type": "Feature", "properties": { "osm_id": "2376691246", "name": null, "barrier": null, "highway": null, "ref": null, "address": null, "is_in": null, "place": null, "man_made": null, "other_tags": "\"amenity\"=>\"bench\"" }, "geometry": { "type": "Point", "coordinates": [ 139.710021, 35.683666 ] } },
{ "type": "Feature", "properties": { "osm_id": "2376691248", "name": null, "barrier": null, "highway": null, "ref": null, "address": null, "is_in": null, "place": null, "man_made": null, "other_tags": "\"amenity\"=>\"bench\"" }, "geometry": { "type": "Point", "coordinates": [ 139.71016, 35.683505 ] } },
{ "type": "Feature", "properties": { "osm_id": "2376693199", "name": null, "barrier": null, "highway": null, "ref": null, "address": null, "is_in": null, "place": null, "man_made": null, "other_tags": "\"amenity\"=>\"bench\"" }, "geometry": { "type": "Point", "coordinates": [ 139.710764, 35.684065 ] } },
{ "type": "Feature", "properties": { "osm_id": "2376693346", "name": null, "barrier": null, "highway": null, "ref": null, "address": null, "is_in": null, "place": null, "man_made": null, "other_tags": "\"amenity\"=>\"bench\"" }, "geometry": { "type": "Point", "coordinates": [ 139.7109209, 35.6838928 ] } },
{ "type": "Feature", "properties": { "osm_id": "2376693425", "name": null, "barrier": null, "highway": null, "ref": null, "address": null, "is_in": null, "place": null, "man_made": null, "other_tags": "\"amenity\"=>\"bench\",\"backrest\"=>\"yes\"" }, "geometry": { "type": "Point", "coordinates": [ 139.711147399999987, 35.684189 ] } },
{ "type": "Feature", "properties": { "osm_id": "2376694257", "name": null, "barrier": null, "highway": null, "ref": null, "address": null, "is_in": null, "place": null, "man_made": null, "other_tags": "\"amenity\"=>\"bench\",\"backrest\"=>\"no\"" }, "geometry": { "type": "Point", "coordinates": [ 139.711607, 35.683734 ] } },
{ "type": "Feature", "properties": { "osm_id": "2376694258", "name": null, "barrier": null, "highway": null, "ref": null, "address": null, "is_in": null, "place": null, "man_made": null, "other_tags": "\"amenity\"=>\"bench\",\"backrest\"=>\"yes\"" }, "geometry": { "type": "Point", "coordinates": [ 139.711766, 35.683666 ] } },
{ "type": "Feature", "properties": { "osm_id": "2376694260", "name": null, "barrier": null, "highway": null, "ref": null, "address": null, "is_in": null, "place": null, "man_made": null, "other_tags": "\"amenity\"=>\"bench\"" }, "geometry": { "type": "Point", "coordinates": [ 139.711919, 35.683621 ] } },
{ "type": "Feature", "properties": { "osm_id": "2376695026", "name": null, "barrier": null, "highway": null, "ref": null, "address": null, "is_in": null, "place": null, "man_made": null, "other_tags": "\"amenity\"=>\"bench\"" }, "geometry": { "type": "Point", "coordinates": [ 139.711689, 35.68313 ] } },
{ "type": "Feature", "properties": { "osm_id": "2376695254", "name": null, "barrier": null, "highway": null, "ref": null, "address": null, "is_in": null, "place": null, "man_made": null, "other_tags": "\"amenity\"=>\"bench\"" }, "geometry": { "type": "Point", "coordinates": [ 139.711551, 35.683205 ] } },
{ "type": "Feature", "properties": { "osm_id": "2376695528", "name": null, "barrier": null, "highway": null, "ref": null, "address": null, "is_in": null, "place": null, "man_made": null, "other_tags": "\"amenity\"=>\"bench\"" }, "geometry": { "type": "Point", "coordinates": [ 139.711395, 35.683285 ] } },
{ "type": "Feature", "properties": { "osm_id": "2376695536", "name": null, "barrier": null, "highway": null, "ref": null, "address": null, "is_in": null, "place": null, "man_made": null, "other_tags": "\"amenity\"=>\"bench\"" }, "geometry": { "type": "Point", "coordinates": [ 139.711339, 35.683278 ] } },
{ "type": "Feature", "properties": { "osm_id": "2376695677", "name": null, "barrier": null, "highway": null, "ref": null, "address": null, "is_in": null, "place": null, "man_made": null, "other_tags": "\"amenity\"=>\"bench\"" }, "geometry": { "type": "Point", "coordinates": [ 139.711299, 35.683294 ] } },
{ "type": "Feature", "properties": { "osm_id": "2376695809", "name": null, "barrier": null, "highway": null, "ref": null, "address": null, "is_in": null, "place": null, "man_made": null, "other_tags": "\"amenity\"=>\"bench\"" }, "geometry": { "type": "Point", "coordinates": [ 139.711244, 35.683384 ] } },
{ "type": "Feature", "properties": { "osm_id": "2376695845", "name": null, "barrier": null, "highway": null, "ref": null, "address": null, "is_in": null, "place": null, "man_made": null, "other_tags": "\"amenity\"=>\"bench\"" }, "geometry": { "type": "Point", "coordinates": [ 139.711111, 35.683508 ] } },
{ "type": "Feature", "properties": { "osm_id": "2376695910", "name": null, "barrier": null, "highway": null, "ref": null, "address": null, "is_in": null, "place": null, "man_made": null, "other_tags": "\"amenity\"=>\"bench\"" }, "geometry": { "type": "Point", "coordinates": [ 139.71109, 35.68353 ] } },
{ "type": "Feature", "properties": { "osm_id": "2376695911", "name": null, "barrier": null, "highway": null, "ref": null, "address": null, "is_in": null, "place": null, "man_made": null, "other_tags": "\"amenity\"=>\"bench\"" }, "geometry": { "type": "Point", "coordinates": [ 139.71107, 35.683553 ] } },
{ "type": "Feature", "properties": { "osm_id": "2376696002", "name": null, "barrier": null, "highway": null, "ref": null, "address": null, "is_in": null, "place": null, "man_made": null, "other_tags": "\"amenity\"=>\"bench\"" }, "geometry": { "type": "Point", "coordinates": [ 139.711056, 35.683584 ] } },
{ "type": "Feature", "properties": { "osm_id": "2376696162", "name": null, "barrier": null, "highway": null, "ref": null, "address": null, "is_in": null, "place": null, "man_made": null, "other_tags": "\"amenity\"=>\"bench\"" }, "geometry": { "type": "Point", "coordinates": [ 139.711041, 35.683602 ] } },
{ "type": "Feature", "properties": { "osm_id": "2376699580", "name": null, "barrier": null, "highway": null, "ref": null, "address": null, "is_in": null, "place": null, "man_made": null, "other_tags": "\"amenity\"=>\"toilets\",\"wheelchair\"=>\"no\"" }, "geometry": { "type": "Point", "coordinates": [ 139.705213, 35.6849034 ] } },
{ "type": "Feature", "properties": { "osm_id": "2376707745", "name": null, "barrier": null, "highway": null, "ref": null, "address": null, "is_in": null, "place": null, "man_made": null, "other_tags": "\"amenity\"=>\"bench\"" }, "geometry": { "type": "Point", "coordinates": [ 139.706719, 35.686441 ] } },
{ "type": "Feature", "properties": { "osm_id": "2376707748", "name": null, "barrier": null, "highway": null, "ref": null, "address": null, "is_in": null, "place": null, "man_made": null, "other_tags": "\"amenity\"=>\"bench\"" }, "geometry": { "type": "Point", "coordinates": [ 139.706952, 35.686535 ] } },
{ "type": "Feature", "properties": { "osm_id": "2376707965", "name": null, "barrier": null, "highway": null, "ref": null, "address": null, "is_in": null, "place": null, "man_made": null, "other_tags": "\"amenity\"=>\"bench\"" }, "geometry": { "type": "Point", "coordinates": [ 139.707267, 35.686477 ] } },
{ "type": "Feature", "properties": { "osm_id": "2376708764", "name": null, "barrier": null, "highway": null, "ref": null, "address": null, "is_in": null, "place": null, "man_made": null, "other_tags": "\"amenity\"=>\"bench\"" }, "geometry": { "type": "Point", "coordinates": [ 139.707395, 35.686498 ] } },
{ "type": "Feature", "properties": { "osm_id": "2376709733", "name": null, "barrier": null, "highway": null, "ref": null, "address": null, "is_in": null, "place": null, "man_made": null, "other_tags": "\"amenity\"=>\"bench\"" }, "geometry": { "type": "Point", "coordinates": [ 139.707564, 35.686542 ] } },
{ "type": "Feature", "properties": { "osm_id": "2376710052", "name": null, "barrier": null, "highway": null, "ref": null, "address": null, "is_in": null, "place": null, "man_made": null, "other_tags": "\"amenity\"=>\"bench\",\"backrest\"=>\"no\"" }, "geometry": { "type": "Point", "coordinates": [ 139.707918, 35.686557 ] } },
{ "type": "Feature", "properties": { "osm_id": "2376710382", "name": null, "barrier": null, "highway": null, "ref": null, "address": null, "is_in": null, "place": null, "man_made": null, "other_tags": "\"amenity\"=>\"vending_machine\",\"check_date\"=>\"2023-10-22\",\"vending\"=>\"drinks\"" }, "geometry": { "type": "Point", "coordinates": [ 139.7080836, 35.6868478 ] } },
{ "type": "Feature", "properties": { "osm_id": "2376710383", "name": null, "barrier": null, "highway": null, "ref": null, "address": null, "is_in": null, "place": null, "man_made": null, "other_tags": "\"amenity\"=>\"vending_machine\",\"check_date\"=>\"2023-10-22\"" }, "geometry": { "type": "Point", "coordinates": [ 139.7080676, 35.6868498 ] } },
{ "type": "Feature", "properties": { "osm_id": "2376710508", "name": null, "barrier": null, "highway": null, "ref": null, "address": null, "is_in": null, "place": null, "man_made": null, "other_tags": "\"amenity\"=>\"vending_machine\",\"check_date\"=>\"2023-10-22\",\"vending\"=>\"drinks\"" }, "geometry": { "type": "Point", "coordinates": [ 139.7080531, 35.6868507 ] } },
{ "type": "Feature", "properties": { "osm_id": "2376710690", "name": null, "barrier": null, "highway": null, "ref": null, "address": null, "is_in": null, "place": null, "man_made": null, "other_tags": "\"amenity\"=>\"bench\",\"backrest\"=>\"no\"" }, "geometry": { "type": "Point", "coordinates": [ 139.708445899999987, 35.6863987 ] } },
{ "type": "Feature", "properties": { "osm_id": "2376710903", "name": null, "barrier": null, "highway": null, "ref": null, "address": null, "is_in": null, "place": null, "man_made": null, "other_tags": "\"amenity\"=>\"bench\"" }, "geometry": { "type": "Point", "coordinates": [ 139.70895, 35.686231 ] } },
{ "type": "Feature", "properties": { "osm_id": "2376712584", "name": null, "barrier": null, "highway": null, "ref": null, "address": null, "is_in": null, "place": null, "man_made": null, "other_tags": "\"amenity\"=>\"bench\"" }, "geometry": { "type": "Point", "coordinates": [ 139.711457, 35.68637 ] } },
{ "type": "Feature", "properties": { "osm_id": "2376712597", "name": null, "barrier": null, "highway": null, "ref": null, "address": null, "is_in": null, "place": null, "man_made": null, "other_tags": "\"amenity\"=>\"bench\"" }, "geometry": { "type": "Point", "coordinates": [ 139.711537, 35.686165 ] } },
{ "type": "Feature", "properties": { "osm_id": "2376717493", "name": null, "barrier": null, "highway": null, "ref": null, "address": null, "is_in": null, "place": null, "man_made": null, "other_tags": "\"amenity\"=>\"bench\"" }, "geometry": { "type": "Point", "coordinates": [ 139.7125, 35.68606 ] } },
{ "type": "Feature", "properties": { "osm_id": "2376717759", "name": null, "barrier": null, "highway": null, "ref": null, "address": null, "is_in": null, "place": null, "man_made": null, "other_tags": "\"amenity\"=>\"bench\"" }, "geometry": { "type": "Point", "coordinates": [ 139.712642, 35.685956 ] } },
{ "type": "Feature", "properties": { "osm_id": "2376729774", "name": null, "barrier": null, "highway": null, "ref": null, "address": null, "is_in": null, "place": null, "man_made": null, "other_tags": "\"amenity\"=>\"bench\"" }, "geometry": { "type": "Point", "coordinates": [ 139.71159, 35.6817033 ] } },
{ "type": "Feature", "properties": { "osm_id": "2376730016", "name": null, "barrier": null, "highway": null, "ref": null, "address": null, "is_in": null, "place": null, "man_made": null, "other_tags": "\"amenity\"=>\"bench\"" }, "geometry": { "type": "Point", "coordinates": [ 139.7114154, 35.6817196 ] } },
{ "type": "Feature", "properties": { "osm_id": "2376730714", "name": null, "barrier": null, "highway": null, "ref": null, "address": null, "is_in": null, "place": null, "man_made": null, "other_tags": "\"amenity\"=>\"bench\"" }, "geometry": { "type": "Point", "coordinates": [ 139.711225, 35.681835 ] } },
{ "type": "Feature", "properties": { "osm_id": "2376731152", "name": null, "barrier": null, "highway": null, "ref": null, "address": null, "is_in": null, "place": null, "man_made": null, "other_tags": "\"amenity\"=>\"bench\"" }, "geometry": { "type": "Point", "coordinates": [ 139.7109192, 35.6818039 ] } },
{ "type": "Feature", "properties": { "osm_id": "2376731211", "name": null, "barrier": null, "highway": null, "ref": null, "address": null, "is_in": null, "place": null, "man_made": null, "other_tags": "\"amenity\"=>\"bench\"" }, "geometry": { "type": "Point", "coordinates": [ 139.710687, 35.681721 ] } },
{ "type": "Feature", "properties": { "osm_id": "2376731238", "name": null, "barrier": null, "highway": null, "ref": null, "address": null, "is_in": null, "place": null, "man_made": null, "other_tags": "\"amenity\"=>\"bench\"" }, "geometry": { "type": "Point", "coordinates": [ 139.7106943, 35.6817524 ] } },
{ "type": "Feature", "properties": { "osm_id": "2376731430", "name": null, "barrier": null, "highway": null, "ref": null, "address": null, "is_in": null, "place": null, "man_made": null, "other_tags": "\"amenity\"=>\"bench\"" }, "geometry": { "type": "Point", "coordinates": [ 139.710354, 35.68167 ] } },
{ "type": "Feature", "properties": { "osm_id": "2376731436", "name": null, "barrier": null, "highway": null, "ref": null, "address": null, "is_in": null, "place": null, "man_made": null, "other_tags": "\"amenity\"=>\"bench\"" }, "geometry": { "type": "Point", "coordinates": [ 139.710185, 35.681744 ] } },
{ "type": "Feature", "properties": { "osm_id": "2376731479", "name": null, "barrier": null, "highway": null, "ref": null, "address": null, "is_in": null, "place": null, "man_made": null, "other_tags": "\"amenity\"=>\"bench\"" }, "geometry": { "type": "Point", "coordinates": [ 139.710041, 35.681748 ] } },
{ "type": "Feature", "properties": { "osm_id": "2376731665", "name": null, "barrier": null, "highway": null, "ref": null, "address": null, "is_in": null, "place": null, "man_made": null, "other_tags": "\"amenity\"=>\"bench\"" }, "geometry": { "type": "Point", "coordinates": [ 139.709805, 35.681848 ] } },
{ "type": "Feature", "properties": { "osm_id": "2376731668", "name": null, "barrier": null, "highway": null, "ref": null, "address": null, "is_in": null, "place": null, "man_made": null, "other_tags": "\"amenity\"=>\"bench\",\"backrest\"=>\"yes\"" }, "geometry": { "type": "Point", "coordinates": [ 139.709682, 35.681898 ] } },
{ "type": "Feature", "properties": { "osm_id": "2376731674", "name": null, "barrier": null, "highway": null, "ref": null, "address": null, "is_in": null, "place": null, "man_made": null, "other_tags": "\"amenity\"=>\"bench\"" }, "geometry": { "type": "Point", "coordinates": [ 139.709584, 35.681946 ] } },
{ "type": "Feature", "properties": { "osm_id": "2376741356", "name": "エクセルシオール", "barrier": null, "highway": null, "ref": null, "address": null, "is_in": null, "place": null, "man_made": null, "other_tags": "\"amenity\"=>\"cafe\",\"indoor_seating\"=>\"yes\",\"opening_hours\"=>\"Mo-Fr 07:00-22:00; Sa 07:30-21:00; Su 07:30-21:00\",\"outdoor_seating\"=>\"yes\"" }, "geometry": { "type": "Point", "coordinates": [ 139.711053, 35.680978 ] } },
{ "type": "Feature", "properties": { "osm_id": "2384953417", "name": null, "barrier": null, "highway": null, "ref": null, "address": null, "is_in": null, "place": null, "man_made": null, "other_tags": "\"amenity\"=>\"vending_machine\",\"vending\"=>\"drinks\"" }, "geometry": { "type": "Point", "coordinates": [ 139.715002, 35.681041 ] } },
{ "type": "Feature", "properties": { "osm_id": "2384953432", "name": null, "barrier": null, "highway": null, "ref": null, "address": null, "is_in": null, "place": null, "man_made": null, "other_tags": "\"amenity\"=>\"vending_machine\",\"vending\"=>\"drinks\"" }, "geometry": { "type": "Point", "coordinates": [ 139.714962, 35.681193 ] } },
{ "type": "Feature", "properties": { "osm_id": "2384956244", "name": null, "barrier": null, "highway": null, "ref": null, "address": null, "is_in": null, "place": null, "man_made": null, "other_tags": "\"amenity\"=>\"telephone\",\"covered\"=>\"yes\"" }, "geometry": { "type": "Point", "coordinates": [ 139.715348, 35.68208 ] } },
{ "type": "Feature", "properties": { "osm_id": "2384956526", "name": "新宿三つの木保育園", "barrier": null, "highway": null, "ref": null, "address": null, "is_in": null, "place": null, "man_made": null, "other_tags": "\"amenity\"=>\"kindergarten\"" }, "geometry": { "type": "Point", "coordinates": [ 139.715439, 35.68215 ] } },
{ "type": "Feature", "properties": { "osm_id": "2384963817", "name": "内藤町けやき公園", "barrier": null, "highway": null, "ref": null, "address": null, "is_in": null, "place": null, "man_made": null, "other_tags": "\"leisure\"=>\"park\"" }, "geometry": { "type": "Point", "coordinates": [ 139.715003, 35.685325 ] } },
{ "type": "Feature", "properties": { "osm_id": "2384964868", "name": "けやき", "barrier": null, "highway": null, "ref": null, "address": null, "is_in": null, "place": null, "man_made": null, "other_tags": "\"natural\"=>\"wood\"" }, "geometry": { "type": "Point", "coordinates": [ 139.714968, 35.68536 ] } },
{ "type": "Feature", "properties": { "osm_id": "2385950497", "name": "新宿御苑南", "barrier": null, "highway": "traffic_signals", "ref": null, "address": null, "is_in": null, "place": null, "man_made": null, "other_tags": "\"traffic_signals\"=>\"signal\"" }, "geometry": { "type": "Point", "coordinates": [ 139.714228600000013, 35.6815329 ] } },
{ "type": "Feature", "properties": { "osm_id": "2385950544", "name": "多武峯内藤神社", "barrier": null, "highway": null, "ref": null, "address": null, "is_in": null, "place": null, "man_made": null, "other_tags": "\"amenity\"=>\"place_of_worship\",\"check_date\"=>\"2023-07-22\",\"religion\"=>\"shinto\",\"wikidata\"=>\"Q106852421\",\"wikimedia_commons\"=>\"Category:Tonomine naito jinja\",\"wikipedia\"=>\"ja:多武峯内藤神社\"" }, "geometry": { "type": "Point", "coordinates": [ 139.7152927, 35.6850093 ] } },
{ "type": "Feature", "properties": { "osm_id": "2388380453", "name": null, "barrier": null, "highway": null, "ref": null, "address": null, "is_in": null, "place": null, "man_made": null, "other_tags": "\"amenity\"=>\"vending_machine\",\"vending\"=>\"drinks\"" }, "geometry": { "type": "Point", "coordinates": [ 139.706193399999989, 35.6820152 ] } },
{ "type": "Feature", "properties": { "osm_id": "2389061854", "name": "新宿御苑前", "barrier": null, "highway": null, "ref": "M10", "address": null, "is_in": null, "place": null, "man_made": null, "other_tags": "\"alt_name:ko\"=>\"신주쿠교엔마에\",\"name:en\"=>\"Shinjuku-gyoemmae\",\"name:es\"=>\"Shinjuku-gyoemmae\",\"name:ja\"=>\"新宿御苑前\",\"name:ja_kana\"=>\"しんじゅくぎょえんまえ\",\"name:ja_rm\"=>\"Shinjuku gyoen mae\",\"name:ko\"=>\"신주쿠교엔앞\",\"name:ru\"=>\"Синдзюку Гёэнмаэ\",\"operator\"=>\"東京地下鉄\",\"platforms\"=>\"2\",\"public_transport\"=>\"stop_position\",\"railway\"=>\"stop\",\"subway\"=>\"yes\",\"wikidata\"=>\"Q1132610\",\"wikipedia\"=>\"ja:新宿御苑前駅\"" }, "geometry": { "type": "Point", "coordinates": [ 139.7107442, 35.6885916 ] } },
{ "type": "Feature", "properties": { "osm_id": "2389668134", "name": "四谷三丁目", "barrier": null, "highway": null, "ref": "M11", "address": null, "is_in": null, "place": null, "man_made": null, "other_tags": "\"name:en\"=>\"Yotsuya-sanchome\",\"name:es\"=>\"Yotsuya-sanchome\",\"name:ja\"=>\"四谷三丁目\",\"name:ja_kana\"=>\"よつやさんちょうめ\",\"name:ja_rm\"=>\"Yotsuya sanchōme\",\"name:ko\"=>\"요츠야 3초메\",\"name:ru\"=>\"Ёцуя Сантёмэ\",\"operator\"=>\"東京地下鉄\",\"platforms\"=>\"2\",\"public_transport\"=>\"stop_position\",\"railway\"=>\"stop\",\"subway\"=>\"yes\",\"wikidata\"=>\"Q1073207\",\"wikipedia\"=>\"ja:四谷三丁目駅\"" }, "geometry": { "type": "Point", "coordinates": [ 139.7205725, 35.6880109 ] } },
{ "type": "Feature", "properties": { "osm_id": "2389668135", "name": "新宿一丁目", "barrier": null, "highway": "bus_stop", "ref": null, "address": null, "is_in": null, "place": null, "man_made": null, "other_tags": "\"bus\"=>\"yes\",\"name:en\"=>\"Shinjuku-1chome\",\"name:ja\"=>\"新宿一丁目\",\"network\"=>\"都営バス\",\"operator\"=>\"東京都交通局\",\"public_transport\"=>\"platform\",\"route_ref\"=>\"品97\"" }, "geometry": { "type": "Point", "coordinates": [ 139.7131975, 35.6879876 ] } },
{ "type": "Feature", "properties": { "osm_id": "2393515035", "name": null, "barrier": null, "highway": "crossing", "ref": null, "address": null, "is_in": null, "place": null, "man_made": null, "other_tags": "\"crossing\"=>\"marked\",\"crossing:markings\"=>\"yes\"" }, "geometry": { "type": "Point", "coordinates": [ 139.7108017, 35.6795214 ] } },
{ "type": "Feature", "properties": { "osm_id": "2393515043", "name": null, "barrier": null, "highway": "crossing", "ref": null, "address": null, "is_in": null, "place": null, "man_made": null, "other_tags": "\"crossing\"=>\"zebra\",\"crossing:island\"=>\"no\",\"tactile_paving\"=>\"yes\"" }, "geometry": { "type": "Point", "coordinates": [ 139.711486400000013, 35.6805782 ] } },
{ "type": "Feature", "properties": { "osm_id": "2393515075", "name": null, "barrier": null, "highway": "crossing", "ref": null, "address": null, "is_in": null, "place": null, "man_made": null, "other_tags": "\"crossing\"=>\"zebra\",\"crossing:island\"=>\"no\",\"tactile_paving\"=>\"yes\"" }, "geometry": { "type": "Point", "coordinates": [ 139.711595, 35.6807951 ] } },
{ "type": "Feature", "properties": { "osm_id": "2393515322", "name": null, "barrier": null, "highway": "crossing", "ref": null, "address": null, "is_in": null, "place": null, "man_made": null, "other_tags": "\"crossing\"=>\"marked\",\"crossing:island\"=>\"no\",\"crossing:markings\"=>\"yes\",\"tactile_paving\"=>\"yes\"" }, "geometry": { "type": "Point", "coordinates": [ 139.711684100000014, 35.6806716 ] } },
{ "type": "Feature", "properties": { "osm_id": "2393522940", "name": null, "barrier": null, "highway": "crossing", "ref": null, "address": null, "is_in": null, "place": null, "man_made": null, "other_tags": "\"bicycle\"=>\"designated\",\"crossing\"=>\"uncontrolled\"" }, "geometry": { "type": "Point", "coordinates": [ 139.7044752, 35.6838766 ] } },
{ "type": "Feature", "properties": { "osm_id": "2393522942", "name": null, "barrier": null, "highway": "crossing", "ref": null, "address": null, "is_in": null, "place": null, "man_made": null, "other_tags": "\"bicycle\"=>\"designated\",\"crossing\"=>\"uncontrolled\",\"crossing:markings\"=>\"zebra\"" }, "geometry": { "type": "Point", "coordinates": [ 139.7044195, 35.6808399 ] } },
{ "type": "Feature", "properties": { "osm_id": "2393522945", "name": null, "barrier": null, "highway": "crossing", "ref": null, "address": null, "is_in": null, "place": null, "man_made": null, "other_tags": "\"crossing\"=>\"uncontrolled\",\"crossing:markings\"=>\"zebra\"" }, "geometry": { "type": "Point", "coordinates": [ 139.7042592, 35.6836134 ] } },
{ "type": "Feature", "properties": { "osm_id": "2393522949", "name": null, "barrier": null, "highway": "crossing", "ref": null, "address": null, "is_in": null, "place": null, "man_made": null, "other_tags": "\"crossing\"=>\"traffic_signals\"" }, "geometry": { "type": "Point", "coordinates": [ 139.7045167, 35.6809335 ] } },
{ "type": "Feature", "properties": { "osm_id": "2393522952", "name": null, "barrier": null, "highway": "crossing", "ref": null, "address": null, "is_in": null, "place": null, "man_made": null, "other_tags": "\"bicycle\"=>\"designated\",\"crossing\"=>\"traffic_signals\"" }, "geometry": { "type": "Point", "coordinates": [ 139.7045937, 35.6807488 ] } },
{ "type": "Feature", "properties": { "osm_id": "2393522953", "name": null, "barrier": null, "highway": "crossing", "ref": null, "address": null, "is_in": null, "place": null, "man_made": null, "other_tags": "\"bicycle\"=>\"designated\",\"crossing\"=>\"traffic_signals\"" }, "geometry": { "type": "Point", "coordinates": [ 139.704521, 35.6807474 ] } },
{ "type": "Feature", "properties": { "osm_id": "2393558946", "name": null, "barrier": null, "highway": "crossing", "ref": null, "address": null, "is_in": null, "place": null, "man_made": null, "other_tags": "\"crossing\"=>\"traffic_signals\"" }, "geometry": { "type": "Point", "coordinates": [ 139.7037617, 35.6845564 ] } },
{ "type": "Feature", "properties": { "osm_id": "2393558949", "name": null, "barrier": null, "highway": "crossing", "ref": null, "address": null, "is_in": null, "place": null, "man_made": null, "other_tags": "\"bicycle\"=>\"designated\",\"crossing\"=>\"traffic_signals\",\"crossing:markings\"=>\"zebra\"" }, "geometry": { "type": "Point", "coordinates": [ 139.7040762, 35.6895988 ] } },
{ "type": "Feature", "properties": { "osm_id": "2393558960", "name": null, "barrier": null, "highway": "crossing", "ref": null, "address": null, "is_in": null, "place": null, "man_made": null, "other_tags": "\"crossing\"=>\"traffic_signals\",\"crossing:markings\"=>\"zebra\"" }, "geometry": { "type": "Point", "coordinates": [ 139.704016700000011, 35.684629 ] } },
{ "type": "Feature", "properties": { "osm_id": "2393558961", "name": null, "barrier": null, "highway": "crossing", "ref": null, "address": null, "is_in": null, "place": null, "man_made": null, "other_tags": null }, "geometry": { "type": "Point", "coordinates": [ 139.7070664, 35.6902878 ] } },
{ "type": "Feature", "properties": { "osm_id": "2393558970", "name": null, "barrier": null, "highway": "crossing", "ref": null, "address": null, "is_in": null, "place": null, "man_made": null, "other_tags": "\"crossing\"=>\"traffic_signals\",\"crossing:markings\"=>\"zebra\"" }, "geometry": { "type": "Point", "coordinates": [ 139.703747600000014, 35.6844166 ] } },
{ "type": "Feature", "properties": { "osm_id": "2393558972", "name": null, "barrier": null, "highway": "crossing", "ref": null, "address": null, "is_in": null, "place": null, "man_made": null, "other_tags": "\"crossing\"=>\"traffic_signals\"" }, "geometry": { "type": "Point", "coordinates": [ 139.7039526, 35.6846284 ] } },
{ "type": "Feature", "properties": { "osm_id": "2393558988", "name": null, "barrier": null, "highway": "crossing", "ref": null, "address": null, "is_in": null, "place": null, "man_made": null, "other_tags": "\"crossing\"=>\"traffic_signals\"" }, "geometry": { "type": "Point", "coordinates": [ 139.7038221, 35.6843803 ] } },
{ "type": "Feature", "properties": { "osm_id": "2393558995", "name": null, "barrier": null, "highway": "crossing", "ref": null, "address": null, "is_in": null, "place": null, "man_made": null, "other_tags": "\"crossing\"=>\"traffic_signals\"" }, "geometry": { "type": "Point", "coordinates": [ 139.7039962, 35.6845306 ] } },
{ "type": "Feature", "properties": { "osm_id": "2394599963", "name": null, "barrier": null, "highway": "crossing", "ref": null, "address": null, "is_in": null, "place": null, "man_made": null, "other_tags": "\"bicycle\"=>\"designated\",\"crossing\"=>\"traffic_signals\"" }, "geometry": { "type": "Point", "coordinates": [ 139.7156195, 35.6873734 ] } },
{ "type": "Feature", "properties": { "osm_id": "2394599965", "name": null, "barrier": null, "highway": "crossing", "ref": null, "address": null, "is_in": null, "place": null, "man_made": null, "other_tags": "\"bicycle\"=>\"designated\",\"crossing\"=>\"traffic_signals\"" }, "geometry": { "type": "Point", "coordinates": [ 139.714049, 35.6877815 ] } },
{ "type": "Feature", "properties": { "osm_id": "2394599967", "name": null, "barrier": null, "highway": "crossing", "ref": null, "address": null, "is_in": null, "place": null, "man_made": null, "other_tags": "\"crossing\"=>\"uncontrolled\"" }, "geometry": { "type": "Point", "coordinates": [ 139.7117964, 35.6882741 ] } },
{ "type": "Feature", "properties": { "osm_id": "2394599968", "name": null, "barrier": null, "highway": "crossing", "ref": null, "address": null, "is_in": null, "place": null, "man_made": null, "other_tags": "\"crossing\"=>\"uncontrolled\"" }, "geometry": { "type": "Point", "coordinates": [ 139.7106758, 35.6885003 ] } },
{ "type": "Feature", "properties": { "osm_id": "2394599969", "name": null, "barrier": null, "highway": "crossing", "ref": null, "address": null, "is_in": null, "place": null, "man_made": null, "other_tags": "\"bicycle\"=>\"designated\",\"crossing\"=>\"traffic_signals\"" }, "geometry": { "type": "Point", "coordinates": [ 139.7100752, 35.6887303 ] } },
{ "type": "Feature", "properties": { "osm_id": "2394599972", "name": null, "barrier": null, "highway": "crossing", "ref": null, "address": null, "is_in": null, "place": null, "man_made": null, "other_tags": "\"bicycle\"=>\"designated\",\"crossing\"=>\"traffic_signals\"" }, "geometry": { "type": "Point", "coordinates": [ 139.7140794, 35.6879784 ] } },
{ "type": "Feature", "properties": { "osm_id": "2394599975", "name": null, "barrier": null, "highway": "crossing", "ref": null, "address": null, "is_in": null, "place": null, "man_made": null, "other_tags": "\"bicycle\"=>\"designated\",\"crossing\"=>\"traffic_signals\"" }, "geometry": { "type": "Point", "coordinates": [ 139.7155756, 35.6875477 ] } },
{ "type": "Feature", "properties": { "osm_id": "2394599982", "name": null, "barrier": null, "highway": "crossing", "ref": null, "address": null, "is_in": null, "place": null, "man_made": null, "other_tags": "\"bicycle\"=>\"designated\",\"crossing\"=>\"traffic_signals\"" }, "geometry": { "type": "Point", "coordinates": [ 139.709936699999986, 35.6888837 ] } },
{ "type": "Feature", "properties": { "osm_id": "2394599983", "name": null, "barrier": null, "highway": "crossing", "ref": null, "address": null, "is_in": null, "place": null, "man_made": null, "other_tags": "\"crossing\"=>\"uncontrolled\"" }, "geometry": { "type": "Point", "coordinates": [ 139.712363399999987, 35.6881553 ] } },
{ "type": "Feature", "properties": { "osm_id": "2394599984", "name": null, "barrier": null, "highway": "crossing", "ref": null, "address": null, "is_in": null, "place": null, "man_made": null, "other_tags": "\"bicycle\"=>\"designated\",\"crossing\"=>\"traffic_signals\"" }, "geometry": { "type": "Point", "coordinates": [ 139.71559, 35.6874674 ] } },
{ "type": "Feature", "properties": { "osm_id": "2394599985", "name": null, "barrier": null, "highway": "crossing", "ref": null, "address": null, "is_in": null, "place": null, "man_made": null, "other_tags": "\"bicycle\"=>\"designated\",\"crossing\"=>\"traffic_signals\"" }, "geometry": { "type": "Point", "coordinates": [ 139.709789699999988, 35.6887906 ] } },
{ "type": "Feature", "properties": { "osm_id": "2394599986", "name": null, "barrier": null, "highway": "crossing", "ref": null, "address": null, "is_in": null, "place": null, "man_made": null, "other_tags": "\"crossing\"=>\"uncontrolled\"" }, "geometry": { "type": "Point", "coordinates": [ 139.710840100000013, 35.6886535 ] } },
{ "type": "Feature", "properties": { "osm_id": "2394599992", "name": null, "barrier": null, "highway": "crossing", "ref": null, "address": null, "is_in": null, "place": null, "man_made": null, "other_tags": "\"crossing\"=>\"traffic_signals\"" }, "geometry": { "type": "Point", "coordinates": [ 139.7119083, 35.6883347 ] } },
{ "type": "Feature", "properties": { "osm_id": "2394600008", "name": null, "barrier": null, "highway": "crossing", "ref": null, "address": null, "is_in": null, "place": null, "man_made": null, "other_tags": "\"crossing\"=>\"traffic_signals\"" }, "geometry": { "type": "Point", "coordinates": [ 139.7076006, 35.6895068 ] } },
{ "type": "Feature", "properties": { "osm_id": "2394600012", "name": null, "barrier": null, "highway": "crossing", "ref": null, "address": null, "is_in": null, "place": null, "man_made": null, "other_tags": "\"bicycle\"=>\"designated\",\"crossing\"=>\"traffic_signals\"" }, "geometry": { "type": "Point", "coordinates": [ 139.7142236, 35.6878086 ] } },
{ "type": "Feature", "properties": { "osm_id": "2394600015", "name": null, "barrier": null, "highway": "crossing", "ref": null, "address": null, "is_in": null, "place": null, "man_made": null, "other_tags": "\"bicycle\"=>\"designated\",\"crossing\"=>\"traffic_signals\"" }, "geometry": { "type": "Point", "coordinates": [ 139.713902, 35.6879159 ] } },
{ "type": "Feature", "properties": { "osm_id": "2394600019", "name": null, "barrier": null, "highway": "crossing", "ref": null, "address": null, "is_in": null, "place": null, "man_made": null, "other_tags": "\"crossing\"=>\"uncontrolled\"" }, "geometry": { "type": "Point", "coordinates": [ 139.7129122, 35.688221 ] } },
{ "type": "Feature", "properties": { "osm_id": "2394600022", "name": null, "barrier": null, "highway": "crossing", "ref": null, "address": null, "is_in": null, "place": null, "man_made": null, "other_tags": "\"crossing\"=>\"marked\",\"crossing:markings\"=>\"yes\"" }, "geometry": { "type": "Point", "coordinates": [ 139.71453360000001, 35.6878828 ] } },
{ "type": "Feature", "properties": { "osm_id": "2394600027", "name": null, "barrier": null, "highway": "crossing", "ref": null, "address": null, "is_in": null, "place": null, "man_made": null, "other_tags": "\"crossing\"=>\"traffic_signals\"" }, "geometry": { "type": "Point", "coordinates": [ 139.707756100000012, 35.6895518 ] } },
{ "type": "Feature", "properties": { "osm_id": "2394600030", "name": null, "barrier": null, "highway": "crossing", "ref": null, "address": null, "is_in": null, "place": null, "man_made": null, "other_tags": "\"crossing\"=>\"uncontrolled\"" }, "geometry": { "type": "Point", "coordinates": [ 139.7118539, 35.688445 ] } },
{ "type": "Feature", "properties": { "osm_id": "2394600037", "name": null, "barrier": null, "highway": "crossing", "ref": null, "address": null, "is_in": null, "place": null, "man_made": null, "other_tags": "\"crossing\"=>\"uncontrolled\"" }, "geometry": { "type": "Point", "coordinates": [ 139.7128854, 35.6880463 ] } },
{ "type": "Feature", "properties": { "osm_id": "2394600064", "name": null, "barrier": null, "highway": "crossing", "ref": null, "address": null, "is_in": null, "place": null, "man_made": null, "other_tags": "\"crossing\"=>\"marked\",\"crossing:markings\"=>\"yes\"" }, "geometry": { "type": "Point", "coordinates": [ 139.715420099999989, 35.6875255 ] } },
{ "type": "Feature", "properties": { "osm_id": "2394600067", "name": null, "barrier": null, "highway": "crossing", "ref": null, "address": null, "is_in": null, "place": null, "man_made": null, "other_tags": "\"bicycle\"=>\"designated\",\"crossing\"=>\"traffic_signals\"" }, "geometry": { "type": "Point", "coordinates": [ 139.709924699999988, 35.688625 ] } },
{ "type": "Feature", "properties": { "osm_id": "2394600068", "name": null, "barrier": null, "highway": "crossing", "ref": null, "address": null, "is_in": null, "place": null, "man_made": null, "other_tags": "\"bicycle\"=>\"designated\",\"crossing\"=>\"traffic_signals\"" }, "geometry": { "type": "Point", "coordinates": [ 139.7142485, 35.6878773 ] } },
{ "type": "Feature", "properties": { "osm_id": "2396885522", "name": null, "barrier": null, "highway": "crossing", "ref": null, "address": null, "is_in": null, "place": null, "man_made": null, "other_tags": null }, "geometry": { "type": "Point", "coordinates": [ 139.7158071, 35.6895429 ] } },
{ "type": "Feature", "properties": { "osm_id": "2396885523", "name": null, "barrier": null, "highway": "crossing", "ref": null, "address": null, "is_in": null, "place": null, "man_made": null, "other_tags": null }, "geometry": { "type": "Point", "coordinates": [ 139.7158474, 35.6858644 ] } },
{ "type": "Feature", "properties": { "osm_id": "2396885525", "name": null, "barrier": null, "highway": "crossing", "ref": null, "address": null, "is_in": null, "place": null, "man_made": null, "other_tags": "\"bicycle\"=>\"designated\",\"crossing\"=>\"traffic_signals\"" }, "geometry": { "type": "Point", "coordinates": [ 139.7152261, 35.690027 ] } },
{ "type": "Feature", "properties": { "osm_id": "2396885526", "name": null, "barrier": null, "highway": "crossing", "ref": null, "address": null, "is_in": null, "place": null, "man_made": null, "other_tags": null }, "geometry": { "type": "Point", "coordinates": [ 139.71605550000001, 35.6843683 ] } },
{ "type": "Feature", "properties": { "osm_id": "2396885527", "name": null, "barrier": null, "highway": "crossing", "ref": null, "address": null, "is_in": null, "place": null, "man_made": null, "other_tags": null }, "geometry": { "type": "Point", "coordinates": [ 139.7158408, 35.6853407 ] } },
{ "type": "Feature", "properties": { "osm_id": "2396885528", "name": null, "barrier": null, "highway": "crossing", "ref": null, "address": null, "is_in": null, "place": null, "man_made": null, "other_tags": null }, "geometry": { "type": "Point", "coordinates": [ 139.7158245, 35.683906 ] } },
{ "type": "Feature", "properties": { "osm_id": "2396885529", "name": null, "barrier": null, "highway": "crossing", "ref": null, "address": null, "is_in": null, "place": null, "man_made": null, "other_tags": null }, "geometry": { "type": "Point", "coordinates": [ 139.7159526, 35.685799 ] } },
{ "type": "Feature", "properties": { "osm_id": "2396885530", "name": null, "barrier": null, "highway": "crossing", "ref": null, "address": null, "is_in": null, "place": null, "man_made": null, "other_tags": null }, "geometry": { "type": "Point", "coordinates": [ 139.715364, 35.6823248 ] } },
{ "type": "Feature", "properties": { "osm_id": "2396885536", "name": null, "barrier": null, "highway": "crossing", "ref": null, "address": null, "is_in": null, "place": null, "man_made": null, "other_tags": null }, "geometry": { "type": "Point", "coordinates": [ 139.7155479, 35.6883349 ] } },
{ "type": "Feature", "properties": { "osm_id": "2396885539", "name": null, "barrier": null, "highway": "crossing", "ref": null, "address": null, "is_in": null, "place": null, "man_made": null, "other_tags": null }, "geometry": { "type": "Point", "coordinates": [ 139.715923800000013, 35.6834666 ] } },
{ "type": "Feature", "properties": { "osm_id": "2396885540", "name": null, "barrier": null, "highway": "traffic_signals", "ref": null, "address": null, "is_in": null, "place": null, "man_made": null, "other_tags": "\"traffic_signals\"=>\"signal\"" }, "geometry": { "type": "Point", "coordinates": [ 139.7159485, 35.684545 ] } },
{ "type": "Feature", "properties": { "osm_id": "2396885541", "name": null, "barrier": null, "highway": "crossing", "ref": null, "address": null, "is_in": null, "place": null, "man_made": null, "other_tags": "\"crossing\"=>\"traffic_signals\"" }, "geometry": { "type": "Point", "coordinates": [ 139.7145655, 35.6895083 ] } },
{ "type": "Feature", "properties": { "osm_id": "2396885545", "name": null, "barrier": null, "highway": "crossing", "ref": null, "address": null, "is_in": null, "place": null, "man_made": null, "other_tags": "\"crossing\"=>\"traffic_signals\"" }, "geometry": { "type": "Point", "coordinates": [ 139.7154817, 35.6902231 ] } },
{ "type": "Feature", "properties": { "osm_id": "2396896678", "name": null, "barrier": null, "highway": "crossing", "ref": null, "address": null, "is_in": null, "place": null, "man_made": null, "other_tags": null }, "geometry": { "type": "Point", "coordinates": [ 139.714068200000014, 35.6815532 ] } },
{ "type": "Feature", "properties": { "osm_id": "2396896681", "name": null, "barrier": null, "highway": "crossing", "ref": null, "address": null, "is_in": null, "place": null, "man_made": null, "other_tags": null }, "geometry": { "type": "Point", "coordinates": [ 139.7152715, 35.6821415 ] } },
{ "type": "Feature", "properties": { "osm_id": "2396896684", "name": null, "barrier": null, "highway": "crossing", "ref": null, "address": null, "is_in": null, "place": null, "man_made": null, "other_tags": null }, "geometry": { "type": "Point", "coordinates": [ 139.7150699, 35.6821187 ] } },
{ "type": "Feature", "properties": { "osm_id": "2396896688", "name": null, "barrier": null, "highway": "crossing", "ref": null, "address": null, "is_in": null, "place": null, "man_made": null, "other_tags": null }, "geometry": { "type": "Point", "coordinates": [ 139.7135728, 35.6808701 ] } },
{ "type": "Feature", "properties": { "osm_id": "2398005918", "name": null, "barrier": null, "highway": "crossing", "ref": null, "address": null, "is_in": null, "place": null, "man_made": null, "other_tags": "\"bicycle\"=>\"designated\",\"crossing\"=>\"traffic_signals\"" }, "geometry": { "type": "Point", "coordinates": [ 139.7201211, 35.688004 ] } },
{ "type": "Feature", "properties": { "osm_id": "2401026495", "name": "四谷四丁目東", "barrier": null, "highway": "crossing", "ref": null, "address": null, "is_in": null, "place": null, "man_made": null, "other_tags": "\"crossing\"=>\"traffic_signals\",\"name:en\"=>\"Yotsuya 4-chome East\",\"traffic_signals\"=>\"pedestrian_crossing\"" }, "geometry": { "type": "Point", "coordinates": [ 139.7179615, 35.6878113 ] } },
{ "type": "Feature", "properties": { "osm_id": "2401040262", "name": null, "barrier": null, "highway": "crossing", "ref": null, "address": null, "is_in": null, "place": null, "man_made": null, "other_tags": null }, "geometry": { "type": "Point", "coordinates": [ 139.7101313, 35.691437 ] } },
{ "type": "Feature", "properties": { "osm_id": "2401040266", "name": null, "barrier": null, "highway": "crossing", "ref": null, "address": null, "is_in": null, "place": null, "man_made": null, "other_tags": null }, "geometry": { "type": "Point", "coordinates": [ 139.7072554, 35.6890139 ] } },
{ "type": "Feature", "properties": { "osm_id": "2401040267", "name": null, "barrier": null, "highway": "crossing", "ref": null, "address": null, "is_in": null, "place": null, "man_made": null, "other_tags": "\"crossing\"=>\"marked\"" }, "geometry": { "type": "Point", "coordinates": [ 139.7137078, 35.6873846 ] } },
{ "type": "Feature", "properties": { "osm_id": "2401040270", "name": null, "barrier": null, "highway": "crossing", "ref": null, "address": null, "is_in": null, "place": null, "man_made": null, "other_tags": null }, "geometry": { "type": "Point", "coordinates": [ 139.7143175, 35.6885709 ] } },
{ "type": "Feature", "properties": { "osm_id": "2401040273", "name": null, "barrier": null, "highway": "crossing", "ref": null, "address": null, "is_in": null, "place": null, "man_made": null, "other_tags": null }, "geometry": { "type": "Point", "coordinates": [ 139.7166346, 35.6911246 ] } },
{ "type": "Feature", "properties": { "osm_id": "2401040274", "name": null, "barrier": null, "highway": "crossing", "ref": null, "address": null, "is_in": null, "place": null, "man_made": null, "other_tags": null }, "geometry": { "type": "Point", "coordinates": [ 139.709899299999989, 35.6881662 ] } },
{ "type": "Feature", "properties": { "osm_id": "2401040284", "name": null, "barrier": null, "highway": "traffic_signals", "ref": null, "address": null, "is_in": null, "place": null, "man_made": null, "other_tags": "\"traffic_signals\"=>\"signal\"" }, "geometry": { "type": "Point", "coordinates": [ 139.708845700000012, 35.6883941 ] } },
{ "type": "Feature", "properties": { "osm_id": "2401040287", "name": null, "barrier": null, "highway": "crossing", "ref": null, "address": null, "is_in": null, "place": null, "man_made": null, "other_tags": "\"bicycle\"=>\"designated\"" }, "geometry": { "type": "Point", "coordinates": [ 139.710002300000014, 35.6902145 ] } },
{ "type": "Feature", "properties": { "osm_id": "2401040292", "name": null, "barrier": null, "highway": "crossing", "ref": null, "address": null, "is_in": null, "place": null, "man_made": null, "other_tags": null }, "geometry": { "type": "Point", "coordinates": [ 139.7099997, 35.6880657 ] } },